ID;OBJETO_OBRA;CANTIDAD_OBJETOS;MATERIAL;DENOMINACION_SIMBOLIZA;AUTORES;UBICACION;OBSERVACIONES;DIRECCION_NORMALIZADA;CALLE;ALTURA;BARRIO;COMUNA;CODIGA_POSTAL;CODIGO_POSTAL_ARGENTINO;LATITUD;LONGITUD
11;ESTATUA;1;MARMOL DE CORDOBA;INTERIORES;ALVAREZ LOMBA, A.;;;BOEDO AV. 883;BOEDO AV.;883;BOEDO;COMUNA 5;1218;C1218AAE;-34.62371261326536;-58.4163275755905
14;ESTATUA;1;MARMOL;EL TRABAJO;ANDINA, EMILIO;;;CASEROS AV. Y MONTEAGUDO;CASEROS AV.;;PARQUE PATRICIOS;COMUNA 4;;;-34.63711738161982;-58.40561079435866
15;ESTATUA;1;BRONCE;?USTA (FUENTE INCAICA);ANDINA, EMILIO;;;PERON, EVA AV. 1410;PERON, EVA AV.;1410;PARQUE CHACABUCO;COMUNA 7;1406;C1406HMP;-34.632902763217736;-58.44476251965362
17;MASTIL;1;GRANITO Y BRONCE;HOMENAJE A LA BANDERA;PERLOTI, LUIS;PLAZA VELEZ SARSFIELD;PLAZA VELEZ SARSFIELD;AVELLANEDA AV. 3800;AVELLANEDA AV.;3800;FLORESTA;COMUNA 10;1407;C1407EJR;-34.62920338494417;-58.48217465717332
18;MONUMENTO;1;BRONCE Y MAMPOSTERIA;CEFERINO NAMUNCURA;ARMAS, ARMANDO;PZTA CEFERINO NAMUNCURA;PZTA CEFERINO NAMUNCURA;ARREGUI AV. 6400;ARREGUI AV.;6400;VERSALLES;COMUNA 10;1408;C1408AVV;-34.6284718480725;-58.52401789645231
19;PLACA Y MONOLITO;1;BRONCE Y MAMPOSTERIA;NOMENCLATURA OBRA 85;D.G.M;PLAZA 11 DE JUNIO DE 1580;PLAZA 11 DE JUNIO DE 1580;ALEM, LEANDRO N. AV. 90;ALEM, LEANDRO N. AV.;90;SAN NICOLAS;COMUNA 1;1003;C1003AAN;-34.60669936351648;-58.370368737213916
21;BUSTO;1;MARMOL;BASILIO V. PERTINE;ARRIGUTTI, MASIO;PALACIO MUNICIPAL;PALACIO MUNICIPAL;BOLIVAR 1;BOLIVAR;1;MONSERRAT;COMUNA 1;1066;C1066AAA;-34.60820167772438;-58.373573345960764
22;PLACA;1;BRONCE;HJE. A JUAN DE GARAY;;PLAZA 11 DE JUNIO DE 1580;PLAZA 11 DE JUNIO DE 1580;ALEM, LEANDRO N. AV. 90;ALEM, LEANDRO N. AV.;90;SAN NICOLAS;COMUNA 1;1003;C1003AAN;-34.60669936351648;-58.370368737213916
23;PLACA Y MONOLITO;1;BRONCE Y MAMPOSTERIA;HJE. AL IV° CENTENARIO;;PLAZA 11 DE JUNIO DE 1580;PLAZA 11 DE JUNIO DE 1580;ALEM, LEANDRO N. AV. 90;ALEM, LEANDRO N. AV.;90;SAN NICOLAS;COMUNA 1;1003;C1003AAN;-34.60669936351648;-58.370368737213916
24;PLACA Y MONOLITO;1;BRONCE Y MAMPOSTERIA;HJE. AL IV° CENTENARIO;;PLAZA 11 DE JUNIO DE 1580;PLAZA 11 DE JUNIO DE 1580;ALEM, LEANDRO N. AV. 90;ALEM, LEANDRO N. AV.;90;SAN NICOLAS;COMUNA 1;1003;C1003AAN;-34.60669936351648;-58.370368737213916
25;PLACA Y MONOLITO;1;BRONCE Y MAMPOSTERIA;HJE. VASCO A GUERNICA;;PLAZA 11 DE JUNIO DE 1580;PLAZA 11 DE JUNIO DE 1580;ALEM, LEANDRO N. AV. 90;ALEM, LEANDRO N. AV.;90;SAN NICOLAS;COMUNA 1;1003;C1003AAN;-34.60669936351648;-58.370368737213916
26;BUSTO;1;MARMOL;MARIANO DE VEDIA YMITRE;ASSALI, ORESTES;PALACIO MUNICIPAL;PALACIO MUNICIPAL;BOLIVAR 1;BOLIVAR;1;MONSERRAT;COMUNA 1;1066;C1066AAA;-34.60820167772438;-58.373573345960764
27;ESCULTURA MODERNA;1;MAMPOSTERIA;LA PRIMAVERA;ASSLER, FEDERICO;;;CORDOBA AV. Y RODRIGUEZ PEÑA;CORDOBA AV.;;SAN NICOLAS;COMUNA 1;;;-34.5995601455541;-58.39155901024706
28;MONUMENTO;1;BRONCE Y GRANITO;EN LAS AMERICAS;ATTARDI, UGO;PZTA PROVINCIA DE TUCUMAN;PZTA PROVINCIA DE TUCUMAN;9 DE JULIO AV. Y PELLEGRINI, CARLOS;9 DE JULIO AV.;;RETIRO;COMUNA 1;;;-34.59668496376315;-58.38142415256232
29;BUSTO;1;PIEDRA MAR DEL PLATA;MIGUEL DE CERVANTES SAAVEDRA;AZCARATE, ENRIQUE;JARDIN DE LOS POETAS;JARDIN DE LOS POETAS;ISABEL, INFANTA AV. 900;ISABEL, INFANTA AV.;900;;COMUNA 14;1425;C1425CHA;-34.57006679763025;-58.42048286500513
31;ESTATUA;1;BRONCE;LA COSECHADORA;BADIN, JEAN VICTOR;;;MITRE, EMILIO 793;MITRE, EMILIO;793;PARQUE CHACABUCO;COMUNA 7;1424;C1424AYO;-34.63093429652618;-58.442290810147185
33;MONUMENTO;1;BRONCE Y MARMOL;HOMENAJE A LOS CAIDOS EN CASTILLA;BAIARDI, MARIO;;;OBLIGADO RAFAEL, AV.COSTANERA;OBLIGADO RAFAEL, AV.COSTANERA;;;COMUNA 1;;;;
34;MONUMENTO;1;BRONCE Y GRANITO;CAP.GRL.JUSTO JOSE DE URQUIZA;BALDI,RENZO Y ROCHA,HECTOR;;;FIGUEROA ALCORTA, PRES. AV. Y SARMIENTO AV.;FIGUEROA ALCORTA, PRES. AV.;;PALERMO;COMUNA 14;;;-34.571545801660946;-58.41158090327671
35;BUSTO;1;CEMENTO PATINADO;COMANDANTE LUIS J. FONTANA;BALERO, LUIS;;;IRIGOYEN, BERNARDO DE 248;IRIGOYEN, BERNARDO DE;248;MONSERRAT;COMUNA 1;1072;C1072AAF;-34.611279686525044;-58.38052427735525
36;ESTATUA;1;GRANITO RECONSTITUIDO;TESTIMONIO;BALIETTI, ALBERTO;;;BOEDO AV. 956;BOEDO AV.;956;BOEDO;COMUNA 5;1218;C1218AAS;-34.62494074501502;-58.4160448023133
37;BUSTO;1;MARMOL;JOAQUIN S. DE ANCHORENA;BALIETTI, ALBERTO;PALACIO MUNICIPAL;PALACIO MUNICIPAL;BOLIVAR 1;BOLIVAR;1;MONSERRAT;COMUNA 1;1066;C1066AAA;-34.60820167772438;-58.373573345960764
38;BUSTO;1;MARMOL;TOMAS JOSE CABALLERO;BALIETTI, ALBERTO;PALACIO MUNICIPAL;PALACIO MUNICIPAL;BOLIVAR 1;BOLIVAR;1;MONSERRAT;COMUNA 1;1066;C1066AAA;-34.60820167772438;-58.373573345960764
40;BUSTO;1;MARMOL;GIACOMO LEOPARDI;BALIETTI, ALBERTO;JARDIN DE LOS POETAS;JARDIN DE LOS POETAS;ISABEL, INFANTA AV. 900;ISABEL, INFANTA AV.;900;;COMUNA 14;1425;C1425CHA;-34.57006679763025;-58.42048286500513
42;MASTIL;1;MAMPOSTERIA E HIERRO;HJE. A LA BANDERA;E.A.I.M.;PLAZA 11 DE NOVIEMBRE DE 1859;PLAZA 11 DE NOVIEMBRE DE 1859;DIRECTORIO AV. 2600;DIRECTORIO AV.;2600;FLORES;COMUNA 7;1406;C1406HAO;-34.63435473556575;-58.46331989095321
44;BUSTO;1;BRONCE;DR. JUAN MANUEL ESTRADA;BARDAS, NICOLAS;ESCUELAS RAGGIO;ESCUELAS RAGGIO;DEL LIBERTADOR AV. 8635;DEL LIBERTADOR AV.;8635;NUÑEZ;COMUNA 13;1429;C1429BNG;-34.536106731430834;-58.46649604824859
45;ESTATUA;1;MARMOL;LA OLA;BARDAS, NICOLAS;PARQUE BALNEARIO SUR;PARQUE BALNEARIO SUR;PAZ, GRAL. AV. 16802;PAZ, GRAL. AV.;16802;;COMUNA 8;1439;C1439HNO;-34.69801445074425;-58.46981073107586
46;ESTATUA;1;MARMOL;LA ARMONIA;BARDAS, NICOLAS;PALACIO MUNICIPAL;PALACIO MUNICIPAL;BOLIVAR 1;BOLIVAR;1;MONSERRAT;COMUNA 1;1066;C1066AAA;-34.60820167772438;-58.373573345960764
47;MASTIL;1;BRONCE Y MAMPOSTERIA;HOMENAJE A LA BANDERA;BARRIAS, ERNESTO;PZTA MALAGARRIGA;PZTA MALAGARRIGA;CABILDO AV. 4002;CABILDO AV.;4002;SAAVEDRA;COMUNA 12;1429;C1429AAY;-34.54639654356436;-58.470351717251916
48;PLACA Y MONOLITO;1;BRONCE Y MAMPOSTERIA;HJE. A DON FELICIANO BRUNELLI;D.G.O.P.;CNEL APOLINARIO FIGUEROA 602;CNEL APOLINARIO FIGUEROA 602;FIGUEROA, D. APOLINARIO, CORONEL 602;FIGUEROA, D. APOLINARIO, CORONEL;602;VILLA CRESPO;COMUNA 15;1416;C1416DPD;-34.60615040934279;-58.44835374955517
49;MASTIL;1;MAMPOSTERIA Y BRONCE;HOMENAJE A LA BANDERA;BARRIAS, LUIS ERNESTO;AV RIESTRA Y M LEGUIZAMON;AV RIESTRA Y M LEGUIZAMON;RIESTRA AV. Y LEGUIZAMON, MARTINIANO;RIESTRA AV.;;VILLA LUGANO;COMUNA 8;;;-34.677923609294645;-58.47613342980809
52;ESCULTURA NEOFIGURA;1;HIERRO;EL ARBOL;BASTERRETXEA, N.;PARQUE CARLOS THAYS;PARQUE CARLOS THAYS;DEL LIBERTADOR AV. Y CALLAO AV.;DEL LIBERTADOR AV.;;RECOLETA;COMUNA 2;;;-34.586585155522265;-58.38585230082456
53;ESTATUA;1;MARMOL;ALLA FONTE;BATTIGLIA, C;PASEO DE LA RECOLETA;PASEO DE LA RECOLETA;LOPEZ, VICENTE 2050;LOPEZ, VICENTE;2050;RECOLETA;COMUNA 2;1128;C1128ACF;-34.588919443992125;-58.39362848214972
54;GRUPO ESCULTORICO;1;BRONCE;HOMENAJE A LA MADRE;BATTISTI, FERRARO;AV RIESTRA Y MURGUIONDO;AV RIESTRA Y MURGUIONDO;RIESTRA AV. Y MURGUIONDO;RIESTRA AV.;;VILLA LUGANO;COMUNA 8;;;-34.67721779279616;-58.475334193005686
56;BUSTO Y BASE;1;BRONCE Y MAMPOSTERIA;HJE. AL GRL. SAN MARTINN;PERLOTI, LUIS;CNEL APOLINARIO FIGUEROA 602;CNEL APOLINARIO FIGUEROA 602;FIGUEROA, D. APOLINARIO, CORONEL 602;FIGUEROA, D. APOLINARIO, CORONEL;602;VILLA CRESPO;COMUNA 15;1416;C1416DPD;-34.60615040934279;-58.44835374955517
57;MASTIL;1;HIERRO Y BRONCE;ARGENTINIDAD;PERLOTI, LUIS;CNEL APOLINARIO FIGUEROA 602;CNEL APOLINARIO FIGUEROA 602;FIGUEROA, D. APOLINARIO, CORONEL 602;FIGUEROA, D. APOLINARIO, CORONEL;602;VILLA CRESPO;COMUNA 15;1416;C1416DPD;-34.60615040934279;-58.44835374955517
58;PLACA Y MONOLITO;1;FIBROCEMENTO Y MAMPOSTERIA;ESCUDO URUGUAYO;M.O.A.;14 DE JULIO 1150;14 DE JULIO 1150;14 DE JULIO 1150;14 DE JULIO;1150;VILLA ORTUZAR;COMUNA 15;1427;C1427CJX;-34.58017227381173;-58.461883741630615
59;ESTATUA;1;BRONCE;PUREZA;BIGATTI, ALFREDO;JARDIN BOTANICO;JARDIN BOTANICO;SANTA FE AV. 3951;SANTA FE AV.;3951;PALERMO;COMUNA 14;1425;C1425BHB;-34.58373108070923;-58.41788399273957
60;GRUPO ESCULTORICO;1;BRONCE;SATURNALIA;BIONDI, ERNESTO;JARDIN BOTANICO;JARDIN BOTANICO;SANTA FE AV. 3951;SANTA FE AV.;3951;PALERMO;COMUNA 14;1425;C1425BHB;-34.58373108070923;-58.41788399273957
61;MONUMENTO CON RELIE;1;CEMENTO PATINADO;HOMENAJE A LOS HEROES Y MARTIRES GHETTO;BISCIONE, CARLOS;PARQUE DEL CENTENARIO;PARQUE DEL CENTENARIO;DIAZ VELEZ AV. Y FINOCHIETTO, RICARDO, DR.;DIAZ VELEZ AV.;;CABALLITO;COMUNA 6;;;-34.608622751102516;-58.43579196744385
63;GRUPO ESCULTORICO;1;MARMOL;LOS PRIMEROS FRIOS;BLAY Y FABREGAS, M.;JARDIN BOTANICO;JARDIN BOTANICO;SANTA FE AV. 3951;SANTA FE AV.;3951;PALERMO;COMUNA 14;1425;C1425BHB;-34.58373108070923;-58.41788399273957
64;PLACA Y MONOLITO;1;FIBROCEMENTO Y MAMPOSTERIA;ESCUDO NACIONAL;M.O.A.;14 DE JULIO 1150;14 DE JULIO 1150;14 DE JULIO 1150;14 DE JULIO;1150;VILLA ORTUZAR;COMUNA 15;1427;C1427CJX;-34.58017227381173;-58.461883741630615
65;MASTIL;1;MAMPOSTERIA E HIERRO;HJE. A LA BANDERA;RAVAZZOLI, ING. LUIS;14 DE JULIO 1150;14 DE JULIO 1150;14 DE JULIO 1150;14 DE JULIO;1150;VILLA ORTUZAR;COMUNA 15;1427;C1427CJX;-34.58017227381173;-58.461883741630615
66;ESCULTURA;1;BRONCE;TORSO MASCULINO;BOTERO, FERNANDO;PARQUE CARLOS THAYS;PARQUE CARLOS THAYS;DEL LIBERTADOR AV. Y CALLAO AV.;DEL LIBERTADOR AV.;;RECOLETA;COMUNA 2;;;-34.586585155522265;-58.38585230082456
67;MONOLITO;1;GRANITO;HJE.AL BRIGADIER GRL.LAVALLEJA;;14 DE JULIO 1150;14 DE JULIO 1150;14 DE JULIO 1150;14 DE JULIO;1150;VILLA ORTUZAR;COMUNA 15;1427;C1427CJX;-34.58017227381173;-58.461883741630615
68;PLACA Y MONOLITO;1;BRONCE Y MAMPOSTERIA;NOMENCLATURA DE PLAZA;D.G.M.;FIGUERO ALCORTA 4000;FIGUERO ALCORTA 4000;FIGUEROA ALCORTA, PRES. AV. 4000;FIGUEROA ALCORTA, PRES. AV.;4000;PALERMO;COMUNA 14;1425;C1425CLS;-34.57052915000522;-58.41333948518625
69;PLACA Y MONOLITO;1;BRONCE Y MAMPOSTERIA;HJE.A JUAN BAUTISTA ALBERDI;D.G.O.M.;O HIGGINS 2600;O HIGGINS 2600;O'HIGGINS 2600;O'HIGGINS;2600;BELGRANO;COMUNA 13;1428;C1428AGP;-34.55534109776024;-58.4569014142588
70;GRUPO ESCULTORICO;1;MARMOL;EL PERDON;BOVERIE, EUGENIO;PARQUE AVELLANEDA;PARQUE AVELLANEDA;DIRECTORIO AV. Y LACARRA;DIRECTORIO AV.;;PARQUE AVELLANEDA;COMUNA 9;;;-34.6412975520066;-58.47992772490574
71;MASTIL;1;HIERRO;HJE. A LA BANDERA;CONST.HORIZONTES;O HIGGINS 2600;O HIGGINS 2600;O'HIGGINS 2600;O'HIGGINS;2600;BELGRANO;COMUNA 13;1428;C1428AGP;-34.55534109776024;-58.4569014142588
73;BUSTO;1;MARMOL;ADOLFO J. BULLRICH;BRODSKY, JOSE;PALACIO MUNICIPAL;PALACIO MUNICIPAL;BOLIVAR 1;BOLIVAR;1;MONSERRAT;COMUNA 1;1066;C1066AAA;-34.60820167772438;-58.373573345960764
74;PLACA Y MONOLITO;1;BRONCE Y MAMPOSTERIA;HJE.A LAUREANO OLIVER;D.G.O.M.;O HIGGINS 2600;O HIGGINS 2600;O'HIGGINS 2600;O'HIGGINS;2600;BELGRANO;COMUNA 13;1428;C1428AGP;-34.55534109776024;-58.4569014142588
75;BUSTO;1;MARMOL;JOSE MARMOL;BRUNINX, JOSE;PASEO DEL LECTOR;PASEO DEL LECTOR;LAS HERAS GENERAL AV. 2505;LAS HERAS GENERAL AV.;2505;RECOLETA;COMUNA 2;1425;C1425ASC;-34.5856141644297;-58.39914756326172
76;BUSTO;1;BRONCE;DR. MARCIAL V. QUIROGA;BRUNINX, LUIS;HOSPITAL MUNICIPAL RAMOS MEJIA;HOSPITAL MUNICIPAL RAMOS MEJIA;URQUIZA, GRAL. 609;URQUIZA, GRAL.;609;BALVANERA;COMUNA 3;1221;C1221ADC;-34.617620510654355;-58.409400324618595
77;BUSTO;1;BRONCE;RAMON PEREZ AYALA;BUCCI, ARMANDO;JARDIN DE LOS POETAS;JARDIN DE LOS POETAS;ISABEL, INFANTA AV. 900;ISABEL, INFANTA AV.;900;;COMUNA 14;1425;C1425CHA;-34.57006679763025;-58.42048286500513
78;MONUMENTO;1;BRONCE Y PIEDRA;GENERAL MARTIN MIGUEL DE GUEMES;BUCCI, ERMANDO;PARQUE SAN BENITO;PARQUE SAN BENITO;FIGUEROA ALCORTA, PRES. AV. 6700;FIGUEROA ALCORTA, PRES. AV.;6700;BELGRANO;COMUNA 13;1428;C1428BCP;-34.55076452781657;-58.437555981082845
80;BUSTO;1;MARMOL;CESAR B. CACCIA;BUCCI, ERMANDO;PALACIO MUNICIPAL;PALACIO MUNICIPAL;BOLIVAR 1;BOLIVAR;1;MONSERRAT;COMUNA 1;1066;C1066AAA;-34.60820167772438;-58.373573345960764
83;BUSTO;1;BRONCE Y MARMOL;ENRIQUE LARRETA;BUSTILLO, ALEJANDRO;JARDIN DE LOS POETAS;JARDIN DE LOS POETAS;ISABEL, INFANTA AV. 900;ISABEL, INFANTA AV.;900;;COMUNA 14;1425;C1425CHA;-34.57006679763025;-58.42048286500513
84;BUSTO;1;CEMENTO PATINADO;ALBERTO VACCAREZZA;TOTO, CARLOS MARIA;PLAZA ALBERTO VACCAREZZA;PLAZA ALBERTO VACCAREZZA;ALCARAZ 5400;ALCARAZ;5400;VILLA LURO;COMUNA 10;1407;C1407GIZ;-34.62600959556065;-58.51122985103146
85;RELOJ SOLAR;1;;MOTIVO DECORATIVO;NATIONAL PANASONIC;PLAZA ALFEREZ SOBRAL;PLAZA ALFEREZ SOBRAL;SALGUERO, JERONIMO 2502;SALGUERO, JERONIMO;2502;PALERMO;COMUNA 14;1425;C1425DEW;-34.58212277794186;-58.410202603405686
86;PLACA Y MONOLITO;1;BRONCE Y MAMPOSTERIA;NOMENCLATURA DE PLAZOLETA;D.G.M;PLAZA ALFREDO NOBEL;PLAZA ALFREDO NOBEL;TURIN 3300;TURIN;3300;PARQUE CHAS;COMUNA 15;1431;C1431DHH;-34.58759752170362;-58.48374280817317
89;PLACA Y MONOLITO;1;MARMOL Y MAMPOSTERIA;HJE. A LA VIRGEN DE ITATI;D.G.O.M.;PLAZA ALMAGRO;PLAZA ALMAGRO;SARMIENTO 3800;SARMIENTO;3800;ALMAGRO;COMUNA 5;1197;C1197AAB;-34.60534232188875;-58.418220920795456
94;MASTIL;1;GRANITO RECONSTITUIDO;HJE. A LA BANDERA;VARANGOT, ING. JORGE;PLAZA ALMAGRO;PLAZA ALMAGRO;SARMIENTO 3800;SARMIENTO;3800;ALMAGRO;COMUNA 5;1197;C1197AAB;-34.60534232188875;-58.418220920795456
95;PLACA Y MONOLITO;1;MARMOL Y MAMPOSTERIA;HJE. A VICENTE SAN LORENZO;;PLAZA ALMAGRO;PLAZA ALMAGRO;SARMIENTO 3800;SARMIENTO;3800;ALMAGRO;COMUNA 5;1197;C1197AAB;-34.60534232188875;-58.418220920795456
96;ESTATUA;1;BRONCE;DR. JUAN F. AGUILAR;CARLIN, JOSE;HOSPITAL MUNICIPAL RAMOS MEJIA;HOSPITAL MUNICIPAL RAMOS MEJIA;URQUIZA, GRAL. 609;URQUIZA, GRAL.;609;BALVANERA;COMUNA 3;1221;C1221ADC;-34.617620510654355;-58.409400324618595
97;ESTATUA;1;PIEDRA;JUVENTUD;CAPURRO, ROBERTO;PLAZA ALMIRANTE BROWN;PLAZA ALMIRANTE BROWN;SALVADORES, CNEL. E IRALA;SALVADORES, CNEL.;;BOCA;COMUNA 4;;;-34.6444435207776;-58.36546878215825
99;ESTATUA;1;BRONCE;EL MODERNO ANTEO;LEGUIZAMON PONDAL;PLAZA ALMIRANTE BROWN;PLAZA ALMIRANTE BROWN;SALVADORES, CNEL. E IRALA;SALVADORES, CNEL.;;BOCA;COMUNA 4;;;-34.6444435207776;-58.36546878215825
101;MASTIL MONUMENTAL;1;PIEDRA;GLORIAS NAVALES DE LA NACION;LEONE, JUAN BAUTISTA;PLAZA ALMIRANTE BROWN;PLAZA ALMIRANTE BROWN;SALVADORES, CNEL. E IRALA;SALVADORES, CNEL.;;BOCA;COMUNA 4;;;-34.6444435207776;-58.36546878215825
102;PLACA Y MONOLITO;1;BRONCE Y MAMPOSTERIA;HJE.A CARLOS PELLEGRINI;CASAS, C.;PZTA CARLOS PELLEGRINI;PZTA CARLOS PELLEGRINI;ALVEAR AV. 1350;ALVEAR AV.;1350;RETIRO;COMUNA 1;1014;C1014AAN;-34.59167891664071;-58.383109364623046
103;BUSTO;1;CEMENTO BLANCO;ALMTE. RAMON GONZALEZ FERNANDEZ;FERRARO, JUAN CARLOS;PLAZA ALMTE RAMON GONZALEZ FERNA;PLAZA ALMTE RAMON GONZALEZ FERNA;SARMIENTO AV. E IRAOLA AV.;SARMIENTO AV.;;PALERMO;COMUNA 14;;;-34.57214617085929;-58.41246804358268
105;PLACA;1;BRONCE;HOMENAJE AL GRL. SAN MARTINN;CENTRO COMERCIAL;BIBLIOTECA EL PROGRESO;BIBLIOTECA EL PROGRESO;RIESTRA AV. 5655;RIESTRA AV.;5655;VILLA LUGANO;COMUNA 8;1439;C1439BYH;-34.67680478758708;-58.474957215678586
107;PLACA Y MONOLITO;1;BRONCE Y MAMPOSTERIA;NOMENCLATURA DE PLAZA;E.A.I.M.;PLAZA ANTONIO MALAVER;PLAZA ANTONIO MALAVER;GIRARDOT Y ESTOMBA;GIRARDOT;;VILLA ORTUZAR;COMUNA 15;;;-34.58694639771104;-58.4672902601497
110;PLACA Y MONOLITO;1;BRONCE Y MAMPOSTERIA;HJE. A PROCERES DE LA INDEPENDENCIA;D.O.M.;PLAZA ARENALES;PLAZA ARENALES;MERCEDES 4058;MERCEDES;4058;VILLA DEVOTO;COMUNA 11;1419;C1419BGJ;-34.60024618132441;-58.512812850645886
111;MASTIL;1;MAMPOSTERIA;HJE. A LA BANDERA;PERLOTI, LUIS;PLAZA ARENALES;PLAZA ARENALES;MERCEDES 4058;MERCEDES;4058;VILLA DEVOTO;COMUNA 11;1419;C1419BGJ;-34.60024618132441;-58.512812850645886
112;ESTATUA;1;BRONCE;LA CAUTIVA;CHIERICO, SANTIAGO;PZTA VICENTE BELLINI;PZTA VICENTE BELLINI;RIVADAVIA AV. 9175;RIVADAVIA AV.;9175;VELEZ SARSFIELD;COMUNA 10;1407;C1407DZA;-34.63648455457271;-58.49349567441435
113;MONUMENTO Y BASE;1;BRONCE Y MAMPOSTERIA;CONDE ANTONIO DEVOTO;ZOCCHI, ARNALDO;PLAZA ARENALES;PLAZA ARENALES;MERCEDES 4058;MERCEDES;4058;VILLA DEVOTO;COMUNA 11;1419;C1419BGJ;-34.60024618132441;-58.512812850645886
115;PLACA Y MONOLITO;1;BRONCE Y MAMPOSTERIA;HJE. 150° ANIV. INDEPENDENCIA NACION;;PLAZA ARENALES;PLAZA ARENALES;MERCEDES 4058;MERCEDES;4058;VILLA DEVOTO;COMUNA 11;1419;C1419BGJ;-34.60024618132441;-58.512812850645886
117;BUSTO;1;QUEBRACHO;DR. PROSPERO DECO;CONDINO, B. R.;HOSPITAL MUNICIPAL PEÑA;HOSPITAL MUNICIPAL PEÑA;CHUTRO, PEDRO, PROF., DR. 3380;CHUTRO, PEDRO, PROF., DR.;3380;PARQUE PATRICIOS;COMUNA 4;1437;C1437IYP;-34.64305175477846;-58.41141236482849
118;MASTIL;1;MAMPOSTERIA E HIERRO;HJE. A LA BANDERA;D.A.O.M.;PLAZA ARISTOBULO DEL VALLE;PLAZA ARISTOBULO DEL VALLE;CUENCA 2500;CUENCA;2500;VILLA DEL PARQUE;COMUNA 11;1417;C1417AAF;-34.60701132372616;-58.490675477220066
120;BUSTO;1;CEMENTO PATINADO;GRL. SAN MARTINN;M.O.A.;PLAZA ARISTOBULO DEL VALLE;PLAZA ARISTOBULO DEL VALLE;CUENCA 2500;CUENCA;2500;VILLA DEL PARQUE;COMUNA 11;1417;C1417AAF;-34.60701132372616;-58.490675477220066
121;PLACA Y MONOLITO;1;BRONCE Y MAMPOSTERIA;HJE. AL 50° ANIV. DE VILLA DEL PARQU;;PLAZA ARISTOBULO DEL VALLE;PLAZA ARISTOBULO DEL VALLE;CUENCA 2500;CUENCA;2500;VILLA DEL PARQUE;COMUNA 11;1417;C1417AAF;-34.60701132372616;-58.490675477220066
122;ESTATUA;1;MARMOL;LA PRIMAVERA;CORREA MORALES, L.;JARDIN BOTANICO;JARDIN BOTANICO;SANTA FE AV. 3951;SANTA FE AV.;3951;PALERMO;COMUNA 14;1425;C1425BHB;-34.58373108070923;-58.41788399273957
123;PLACA Y MONOLITO;1;BRONCE Y MAMPOSTERIA;HJE. AL GRL. SAN MARTINN;;PLAZA ARISTOBULO DEL VALLE;PLAZA ARISTOBULO DEL VALLE;CUENCA 2500;CUENCA;2500;VILLA DEL PARQUE;COMUNA 11;1417;C1417AAF;-34.60701132372616;-58.490675477220066
124;MONUMENTO;1;BRONCE Y PIEDRA;FALUCHO;CORREA MORALES, L.;PZTA FALUCHO;PZTA FALUCHO;SANTA FE AV. Y DRESCO, ARTURO ANTONIO;SANTA FE AV.;;PALERMO;COMUNA 14;;;-34.57726337495626;-58.429310773058354
125;PLACA Y MONOLITO;1;BRONCE Y MAMPOSTERIA;HJE. A CANILLITAS AL GRL. BELGRANO;;PLAZA ARISTOBULO DEL VALLE;PLAZA ARISTOBULO DEL VALLE;CUENCA 2500;CUENCA;2500;VILLA DEL PARQUE;COMUNA 11;1417;C1417AAF;-34.60701132372616;-58.490675477220066
126;PLACA Y MONOLITO;1;BRONCE Y MAMPOSTERIA;HJE.A LA ASOCIACION VECINAL V.DEL PARQU;;PLAZA ARISTOBULO DEL VALLE;PLAZA ARISTOBULO DEL VALLE;CUENCA 2500;CUENCA;2500;VILLA DEL PARQUE;COMUNA 11;1417;C1417AAF;-34.60701132372616;-58.490675477220066
127;PLACA Y MONOLITO;1;MARMOL Y MAMPOSTERIA;HJE.CENTENARIO VILLA GRAL. MITRE;;PLAZA ARISTOBULO DEL VALLE;PLAZA ARISTOBULO DEL VALLE;CUENCA 2500;CUENCA;2500;VILLA DEL PARQUE;COMUNA 11;1417;C1417AAF;-34.60701132372616;-58.490675477220066
128;MONUMENTO;1;BRONCE Y MARMOL;DR. CARLOS PELLEGRINI;COUTAN, JULIO FELIX;PZTA CARLOS PELLEGRINI;PZTA CARLOS PELLEGRINI;ALVEAR AV. 1350;ALVEAR AV.;1350;RETIRO;COMUNA 1;1014;C1014AAN;-34.59167891664071;-58.383109364623046
129;GRUPO ESCULTORICO;1;MARMOL;EL ABORIGEN;CULLEN AYERZA, H.;PARQUE ESPAÑA;PARQUE ESPAÑA;CASEROS AV. Y BAIGORRI;CASEROS AV.;;BARRACAS;COMUNA 4;;;-34.633349652005904;-58.387273726884345
130;BANCOS;1;HORMIGON;ANFITEATRO;ARQ. LUONGO, HERRERO;PLAZA ARMENIA;PLAZA ARMENIA;MALABIA Y COSTA RICA;MALABIA;;PALERMO;COMUNA 14;;;-34.58946607638585;-58.42508060293869
131;GRUPO ESCULTORICO;2;CEMENTO BLANCO;MOTIVOS DECORATIVOS;CURATELLA MANES, P.;TEATRO SAN MARTINN;TEATRO SAN MARTINN;CORRIENTES AV. 1530;CORRIENTES AV.;1530;SAN NICOLAS;COMUNA 1;1042;C1042AAO;-34.604238054156944;-58.38864181184383
132;MURAL;1;CERAMICA Y MAMPOSTERIA;LOS INMIGRANTES;D AMICO Y ALVAREZ;AV RIESTRA Y CAÑADA DE GOMEZ;AV RIESTRA Y CAÑADA DE GOMEZ;RIESTRA AV. Y CAÑADA DE GOMEZ;RIESTRA AV.;;VILLA LUGANO;COMUNA 8;;;-34.68147931359173;-58.4800365641985
133;MASTIL;1;MAMPOSTERIA E HIERRO;HOMENAJE A LA BANDERA;D.A.O.M.;AVDAS RIESTRA Y CRUZ;AVDAS RIESTRA Y CRUZ;RIESTRA AV. Y FERNANDEZ DE LA CRUZ, F., GRAL. AV.;RIESTRA AV.;;NUEVA POMPEYA;COMUNA 4;;;-34.644801353926155;-58.42552441174289
134;MASTIL;1;MAMPOSTERIA E HIERRO;HOMENAJE A LA BANDERA;D.A.O.M.;PARQUE SANTOJANNI;PARQUE SANTOJANNI;DE LA TORRE, LISANDRO Y PATRON;DE LA TORRE, LISANDRO;;LINIERS;COMUNA 9;;;-34.64954742883088;-58.51709679716566
135;MONUMENTO;1;PIEDRA TOBA;HJE. A ARMENIA;BAGHUMYAN, GRIBOR;PLAZA ARMENIA;PLAZA ARMENIA;MALABIA Y COSTA RICA;MALABIA;;PALERMO;COMUNA 14;;;-34.58946607638585;-58.42508060293869
137;GRUPO ESCULTORICO;1;MARMOL;EL HOMBRE Y SUS PASIONES;SANTIANO, CESAR;PLAZA BALCARCE;PLAZA BALCARCE;JARAMILLO 2321;JARAMILLO;2321;NUÑEZ;COMUNA 13;1429;C1429CRI;-34.54762631414375;-58.46799771317028
138;TEMPLETE;1;MAMPOSTERIA Y MAYOLICA;HJE.A LA VIRGEN DE FATIMA;;PLAZA BALCARCE;PLAZA BALCARCE;JARAMILLO 2321;JARAMILLO;2321;NUÑEZ;COMUNA 13;1429;C1429CRI;-34.54762631414375;-58.46799771317028
139;PLACA Y MONOLITO;1;BRONCE Y MAMPOSTERIA;HJE. A MERCEDES SAN MARTINN BALCARCE;;PLAZA BALCARCE;PLAZA BALCARCE;JARAMILLO 2321;JARAMILLO;2321;NUÑEZ;COMUNA 13;1429;C1429CRI;-34.54762631414375;-58.46799771317028
140;MASTIL;1;HIERRO Y MAMPOSTERIA;HOMENAJE A LA BANDERA;D.A.O.M.;PZTA EMILIO TRONCOSO;PZTA EMILIO TRONCOSO;HERMITTE, ENRIQUE, ING. 5402;HERMITTE, ENRIQUE, ING.;5402;VILLA LUGANO;COMUNA 8;1439;C1439BIB;-34.665626248825745;-58.48367743826464
141;PLACA Y MONOLITO;1;BRONCE Y MAMPOSTERIA;HJE. AL DR. PERITO MORENO;D.A.O.M.;AVDAS PERITO MORENO Y CRUZ;AVDAS PERITO MORENO Y CRUZ;MORENO, PERITO AV. Y FERNANDEZ DE LA CRUZ, F., GRAL. AV.;MORENO, PERITO AV.;;FLORES;COMUNA 7;;;-34.65033464052118;-58.43098548476837
142;PLACA Y MONOLITO;1;BRONCE Y MAMPOSTERIA;HJE. AL DR. PERITO MORENO;D.A.O.M.;AVDAS PERITO MORENO Y CRUZ;AVDAS PERITO MORENO Y CRUZ;MORENO, PERITO AV. Y FERNANDEZ DE LA CRUZ, F., GRAL. AV.;MORENO, PERITO AV.;;FLORES;COMUNA 7;;;-34.65033464052118;-58.43098548476837
143;PLACA Y MONOLITO;1;BRONCE Y MAMPOSTERIA;HOMENAJE AL RESERO;D.A.O.M.;PZTA EL RESERO;PZTA EL RESERO;DE LOS CORRALES AV. 6536;DE LOS CORRALES AV.;6536;MATADEROS;COMUNA 9;1440;C1440BBO;-34.66293656559216;-58.50040368045377
144;BUSTO;1;BRONCE;BARON PIERRE DE COUBERTIN;LAVARELLO, ANA;PLAZA BARON PIERRE DE COUBERTIN;PLAZA BARON PIERRE DE COUBERTIN;DEL LIBERTADOR AV. 550;DEL LIBERTADOR AV.;550;RETIRO;COMUNA 1;1001;C1001ABS;-34.588990727914016;-58.38143309229047
147;BUSTO Y BASE;1;BRONCE Y GRANITO;BARON PIERRE DE COUBERTIN;;PLAZA BARON PIERRE DE COUBERTIN;PLAZA BARON PIERRE DE COUBERTIN;DEL LIBERTADOR AV. 550;DEL LIBERTADOR AV.;550;RETIRO;COMUNA 1;1001;C1001ABS;-34.588990727914016;-58.38143309229047
149;PLACA Y MONOLITO;1;BRONCE Y MAMPOSTERIA;NOMENCLATURA OBRA 1250;D.G.O.M.;LA PAMPA 1781;LA PAMPA 1781;LA PAMPA 1781;LA PAMPA;1781;BELGRANO;COMUNA 13;1428;C1428EAC;-34.56149529396193;-58.448548497725355
151;PLACA Y MONOLITO;1;BRONCE Y MAMPOSTERIA;NOMENCLATURA OBRA 18;D.O.M.;LA PAMPA 1781;LA PAMPA 1781;LA PAMPA 1781;LA PAMPA;1781;BELGRANO;COMUNA 13;1428;C1428EAC;-34.56149529396193;-58.448548497725355
152;MASTIL;1;BRONCE Y GRANITO;HOMENAJE A LA BANDERA;DRESCO, ARTURO;LA PAMPA 1781;LA PAMPA 1781;LA PAMPA 1781;LA PAMPA;1781;BELGRANO;COMUNA 13;1428;C1428EAC;-34.56149529396193;-58.448548497725355
153;PLACA Y MONOLITO;1;BRONCE Y MAMPOSTERIA;NOMENCLATURA DE PLAZOLETA;D.A.O.M.;PZTA ELIAS ALIPPI;PZTA ELIAS ALIPPI;GUARDIA VIEJA 4601;GUARDIA VIEJA;4601;ALMAGRO;COMUNA 5;1192;C1192ABA;-34.599762126906825;-58.42984441710509
154;BALAUSTRADA;1;MAMPOSTERIA;MOTIVO DECORATIVO;E.A.I.M.;LA PAMPA 1781;LA PAMPA 1781;LA PAMPA 1781;LA PAMPA;1781;BELGRANO;COMUNA 13;1428;C1428EAC;-34.56149529396193;-58.448548497725355
157;BUSTO;1;MARMOL;GENERAL MANUEL BELGRANO;FONTAN, LUCIO;LA PAMPA 1781;LA PAMPA 1781;LA PAMPA 1781;LA PAMPA;1781;BELGRANO;COMUNA 13;1428;C1428EAC;-34.56149529396193;-58.448548497725355
161;MASTIL;1;MAMPOSTERIA E HIERRO;HJE. A LA BANDERA;D.A.O.M.;LA RIOJA Y AGRELO;LA RIOJA Y AGRELO;LA RIOJA Y AGRELO;LA RIOJA;;BALVANERA;COMUNA 3;;;-34.61746223371107;-58.40812660686313
170;MASTIL;1;HIERRO Y MAMPOSTERIA;HOMENAJE A LA BANDERA;D.A.O.M.;AV LA PAMPA Y MIÑONES;AV LA PAMPA Y MI?ONES;LA PAMPA Y MIÑONES;LA PAMPA;;BELGRANO;COMUNA 13;;;-34.55824947732803;-58.44306728707743
172;MASTIL;1;HIERRO;HOMENAJE A LA BANDERA;D.A.O.M.;PZTA RIEGO Y NUÑEZ;PZTA RIEGO Y NU?EZ;ARCOS 1249;ARCOS;1249;PALERMO;COMUNA 14;1426;C1426BGC;-34.567506678070565;-58.446559387460574
182;QUIOSCO PARA BANDA;1;HIERRO Y MAMPOSTERIA;MOTIVO DECORATIVO;;LA PAMPA 1781;LA PAMPA 1781;LA PAMPA 1781;LA PAMPA;1781;BELGRANO;COMUNA 13;1428;C1428EAC;-34.56149529396193;-58.448548497725355
189;PLACA Y MONOLITO;1;BRONCE Y MAMPOSTERIA;HJE. A LA REPUBLICA DE VENEZUELA;D.A.O.M.;PARQUE RIVADAVIA;PARQUE RIVADAVIA;RIVADAVIA AV. 4800;RIVADAVIA AV.;4800;CABALLITO;COMUNA 6;1424;C1424CEP;-34.61672965517955;-58.432717209488374
190;PLACA Y MONOLITO;1;BRONCE Y MAMPOSTERIA;ACTO INAUGURAL;D.A.O.M.;PARQUE BALNEARIO SUR;PARQUE BALNEARIO SUR;PAZ, GRAL. AV. 16802;PAZ, GRAL. AV.;16802;;COMUNA 8;1439;C1439HNO;-34.69801445074425;-58.46981073107586
191;PLACA Y MONOLITO;1;BRONCE Y MAMPOSTERIA;NOMENCLATURA OBRA N° 22;D.A.O.M.;PARQUE BALNEARIO SUR;PARQUE BALNEARIO SUR;PAZ, GRAL. AV. 16802;PAZ, GRAL. AV.;16802;;COMUNA 8;1439;C1439HNO;-34.69801445074425;-58.46981073107586
192;PLACA Y MONOLITO;1;BRONCE Y MAMPOSTERIA;AMPLIACION DE LA CALLE;D.A.O.M.;PZTA REGIMIENTO 1 DE PATRICIOS;PZTA REGIMIENTO 1 DE PATRICIOS;SANTA FE AV. 4815;SANTA FE AV.;4815;PALERMO;COMUNA 14;1425;C1425BHK;-34.57722853104102;-58.42860423783285
199;JARRON;1;CEMENTO PATINADO;MOTIVO DECORATIVO;M.O.A.;PLAZA BENITO NAZAR;PLAZA BENITO NAZAR;OLAYA 1302;OLAYA;1302;VILLA CRESPO;COMUNA 15;1414;C1414CCF;-34.60488807262866;-58.44466915563134
202;PLACA Y MONOLITO;1;BRONCE Y MAMPOSTERIA;HJE.A LUIS PENA;D.G.O.M.;AV BELISARIO ROLDAN 4511;AV BELISARIO ROLDAN 4511;SARMIENTO AV. 4040;SARMIENTO AV.;4040;;COMUNA 14;1425;C1425FHO;-34.571264460545855;-58.411933282539536
205;RELOJ SOLAR;1;MARMOL;MOTIVO DECORATIVO;YABASHI, TOKUTARO;AV BELISARIO ROLDAN 4511;AV BELISARIO ROLDAN 4511;SARMIENTO AV. 4040;SARMIENTO AV.;4040;;COMUNA 14;1425;C1425FHO;-34.571264460545855;-58.411933282539536
206;PLACA Y MONOLITO;1;BRONCE Y MAMPOSTERIA;NOMENCLATURA DE PLAZA;D.A.O.M.;PZTA REINO DE TAILANDIA;PZTA REINO DE TAILANDIA;AGOTE, LUIS DR. 2201;AGOTE, LUIS DR.;2201;RECOLETA;COMUNA 2;1425;C1425EOA;-34.58715650860933;-58.3974468964666
207;MONOLITO;1;MAMPOSTERIA;HJE.AL PRIMER CAMPO DE DEPORTES;;AV BELISARIO ROLDAN 4511;AV BELISARIO ROLDAN 4511;SARMIENTO AV. 4040;SARMIENTO AV.;4040;;COMUNA 14;1425;C1425FHO;-34.571264460545855;-58.411933282539536
209;PLACA Y MONOLITO;1;BRONCE Y MAMPOSTERIA;HJE.A BENJAMIN GOULD;;AV BELISARIO ROLDAN 4511;AV BELISARIO ROLDAN 4511;SARMIENTO AV. 4040;SARMIENTO AV.;4040;;COMUNA 14;1425;C1425FHO;-34.571264460545855;-58.411933282539536
210;PLACA Y MONOLITO;1;BRONCE Y MAMPOSTERIA;HJE.A NICOLAS COPERNICO;;AV BELISARIO ROLDAN 4511;AV BELISARIO ROLDAN 4511;SARMIENTO AV. 4040;SARMIENTO AV.;4040;;COMUNA 14;1425;C1425FHO;-34.571264460545855;-58.411933282539536
211;RELIEVE;1;MARMOL;GALILEO GALILEI;;AV BELISARIO ROLDAN 4511;AV BELISARIO ROLDAN 4511;SARMIENTO AV. 4040;SARMIENTO AV.;4040;;COMUNA 14;1425;C1425FHO;-34.571264460545855;-58.411933282539536
216;PLACA Y MONOLITO;1;BRONCE Y MAMPOSTERIA;HJE. AL PERITO MORENO;D.A.O.M. Y M.O.A.;AVDAS PERITO MORENO Y CRUZ;AVDAS PERITO MORENO Y CRUZ;MORENO, PERITO AV. Y FERNANDEZ DE LA CRUZ, F., GRAL. AV.;MORENO, PERITO AV.;;FLORES;COMUNA 7;;;-34.65033464052118;-58.43098548476837
222;PLACA;1;BRONCE;HJES.A DRES. HOUSSAY, LEWIS, ETC.;;AV CORDOBA 2100;AV CORDOBA 2100;CORDOBA AV. 2100;CORDOBA AV.;2100;BALVANERA;COMUNA 3;1120;C1120AAP;-34.5998044138089;-58.39704741976874
226;PLACA Y MONOLITO;1;BRONCE Y MAMPOSTERIA;NOMENCLATURA DE OBRAS 226,227,228 Y 229;D.G.M;PZTA SAN FRANCISCO;PZTA SAN FRANCISCO;ALSINA, ADOLFO Y DEFENSA;ALSINA, ADOLFO;;;COMUNA 1;;;-34.61014133596724;-58.3720606431853
230;PLACA Y MONOLITO;1;BRONCE Y MAMPOSTERIA;NOMENCLATURA OBRA 36;D.G.M;PZTA DR CARLOS ALBERTO ERRO;PZTA DR CARLOS ALBERTO ERRO;MADERO, EDUARDO AV. Y SARMIENTO;MADERO, EDUARDO AV.;;;COMUNA 1;;;-34.60405132978623;-58.36805534900855
232;PLACA Y MONOLITO;1;BRONCE Y MAMPOSTERIA;NOMENCLATURA DE PLAZOLETA;D.G.M;PZTA NIGERIA;PZTA NIGERIA;JUSTO, JUAN B. AV. 4736;JUSTO, JUAN B. AV.;4736;VILLA GRAL. MITRE;COMUNA 11;1416;C1416DKO;-34.610131530426514;-58.46563585268491
234;PLACA Y MONOLITO;1;BRONCE Y MAMPOSTERIA;NOMENCLATURA DE PLAZOLETA;D.G.M;PZTA ANDRES CHAZARRETA;PZTA ANDRES CHAZARRETA;MOSCU 5166;MOSCU;5166;PARQUE CHAS;COMUNA 15;1427;C1427DKD;-34.58708381190549;-58.480838203761145
237;BUSTO Y BASE;1;BRONCE Y MAMPOSTERIA;PIO COLLIVADINO;LEONE, JUAN BAUTISTA;PLAZA CAMPAÑA DEL CHACO;PLAZA CAMPA?A DEL CHACO;CALABRIA AV. Y RAWSON DE DELLEPIANE, ELVIRA AV.;CALABRIA AV.;;PUERTO MADERO;COMUNA 1;;;-34.61924936713924;-58.357711582545946
238;PLACA Y MONOLITO;1;BRONCE Y MAMPOSTERIA;HJE. AL CAP. D. FIDEL SARMIENTO;D.G.O.P.;PLAZA CAP D FIDEL SARMIENTO;PLAZA CAP D FIDEL SARMIENTO;GANDARA Y BERLIN;GANDARA;;PARQUE CHAS;COMUNA 15;;;-34.58295730708665;-58.48027957284024
239;PLACA Y MONOLITO;1;BRONCE Y MAMPOSTERIA;HJE. AL CAP. D. FIDEL SARMIENTO;D.G.O.P.;PLAZA CAP D FIDEL SARMIENTO;PLAZA CAP D FIDEL SARMIENTO;GANDARA Y BERLIN;GANDARA;;PARQUE CHAS;COMUNA 15;;;-34.58295730708665;-58.48027957284024
241;PLACA Y MONOLITO;1;BRONCE Y MAMPOSTERIA;NOMENCLATURA DE PLAZOLETA;D.G.M / M.O.A;PZTA JAMAICA;PZTA JAMAICA;BURELA 1232;BURELA;1232;PARQUE CHAS;COMUNA 15;1427;C1427BJB;-34.58922907635387;-58.482479248761344
242;PLACA Y MONOLITO;1;BRONCE Y MAMPOSTERIA;HJE. AL GRL. SAN MARTINN;D.G.M / M.O.A;HOGAR DE ANCIANOS GRAL SAN MARTIN;HOGAR DE ANCIANOS GRAL SAN MARTIN;WARNES AV. 2650;WARNES AV.;2650;;COMUNA 15;1427;C1427DPS;-34.59712587061162;-58.476091894380374
247;PLACA;1;BRONCE;HJE.AL DR.BERNARDO DE MONTEAGUDO;D.G.M.;PZTA CORONEL PRINGLES;PZTA CORONEL PRINGLES;CASEROS AV. 2999;CASEROS AV.;2999;PARQUE PATRICIOS;COMUNA 4;1264;C1264AAJ;-34.6370159307149;-58.405514008551776
248;PLACA;1;BRONCE;HJE.MUNICIPAL A COLECTIVIDAD JAPONESA;D.G.M.;JARDIN JAPONES;JARDIN JAPONES;CASARES AV. 3401;CASARES AV.;3401;;COMUNA 14;1425;C1425EWA;-34.57726012877658;-58.409865348212804
249;RELOJ SOLAR;1;;MOTIVO DECORATIVO;NATIONAL PANASONIC;PLAZA CASTELLI;PLAZA CASTELLI;CONDE Y ECHEVERRIA;CONDE;;BELGRANO;COMUNA 13;;;-34.56818881424021;-58.464701308177354
253;MASTIL;1;MAMPOSTERIA E HIERRO;HJE. A LA BANDERA;E.A.I.M.;PLAZA CIUDAD DE BANFF;PLAZA CIUDAD DE BANFF;ROMA 760;ROMA;760;VERSALLES;COMUNA 10;1408;C1408BZF;-34.628355191818365;-58.52163954083591
257;GRUPO ESCULTORICO;1;GRANITO;PLENITUD DE LA VIDA;GARGIULO, ANTONIO;PLAZA CIUDAD DE BANFF;PLAZA CIUDAD DE BANFF;ROMA 760;ROMA;760;VERSALLES;COMUNA 10;1408;C1408BZF;-34.628355191818365;-58.52163954083591
259;PLACA Y MONOLITO;1;BRONCE Y MAMPOSTERIA;HJE.A ALFONSO REYES;D.G.M.;JARDIN DE LOS POETAS;JARDIN DE LOS POETAS;ISABEL, INFANTA AV. 900;ISABEL, INFANTA AV.;900;;COMUNA 14;1425;C1425CHA;-34.57006679763025;-58.42048286500513
260;PLACA Y MONOLITO;1;BRONCE Y MAMPOSTERIA;HJE.A DOMINGO FAUSTINO SARMIENTO;D.G.M.;ROSEDAL;ROSEDAL;ISABEL, INFANTA AV. 900;ISABEL, INFANTA AV.;900;PALERMO;COMUNA 14;1425;C1425CHA;-34.57006679763025;-58.42048286500513
262;PLACA Y MONOLITO;1;BRONCE Y MAMPOSTERIA;HJE.A DOMINGO FAUSTINO SARMIENTO;D.G.M.;ROSEDAL;ROSEDAL;ISABEL, INFANTA AV. 900;ISABEL, INFANTA AV.;900;PALERMO;COMUNA 14;1425;C1425CHA;-34.57006679763025;-58.42048286500513
265;PLACA Y MONOLITO;1;BRONCE Y MAMPOSTERIA;HJE. CIUDAD DE GUADIX;D.G.O.P.;PLAZA CIUDAD DE GUADIX;PLAZA CIUDAD DE GUADIX;ARGENTINA AV. 6802;ARGENTINA AV.;6802;VILLA LUGANO;COMUNA 8;1439;C1439HRV;-34.67363611818623;-58.497098796573965
267;PLACA;1;BRONCE;HJE.A RODOLFO PIOTTI;D.G.O.P.;PLAZA CIUDAD DE UDINE;PLAZA CIUDAD DE UDINE;CHIVILCOY Y MAGARIÑOS CERVANTES, A.;CHIVILCOY;;FLORESTA;COMUNA 10;;;-34.620890572278086;-58.49127932027616
268;CIAVEDAL;1;HIERRO FORJADO;MOTIVO DECORATIVO;;PLAZA CIUDAD DE UDINE;PLAZA CIUDAD DE UDINE;CHIVILCOY Y MAGARIÑOS CERVANTES, A.;CHIVILCOY;;FLORESTA;COMUNA 10;;;-34.620890572278086;-58.49127932027616
270;PLACA;1;BRONCE;HJE.SOCIEDAD FRIULANA A BS.AS.;;PLAZA CIUDAD DE UDINE;PLAZA CIUDAD DE UDINE;CHIVILCOY Y MAGARIÑOS CERVANTES, A.;CHIVILCOY;;FLORESTA;COMUNA 10;;;-34.620890572278086;-58.49127932027616
271;PLACA;1;BRONCE;NOMENCLATURA DE CIAVEDAL;;PLAZA CIUDAD DE UDINE;PLAZA CIUDAD DE UDINE;CHIVILCOY Y MAGARIÑOS CERVANTES, A.;CHIVILCOY;;FLORESTA;COMUNA 10;;;-34.620890572278086;-58.49127932027616
272;BUSTO Y BASE;1;BRONCE Y MAMPOSTERIA;ALMIRANTE GUILLERMO BROWN;PERLOTI, LUIS;PLAZA COLOMBIA;PLAZA COLOMBIA;MONTES DE OCA, MANUEL AV. 802;MONTES DE OCA, MANUEL AV.;802;BARRACAS;COMUNA 4;1270;C1270AAV;-34.637919698636594;-58.37461816163098
273;RELIEVE;1;CERAMICA Y MAMPOSTERIA;AL PADRE DE FAMILIA;PERSICO, MARINO;PLAZA COLOMBIA;PLAZA COLOMBIA;MONTES DE OCA, MANUEL AV. 802;MONTES DE OCA, MANUEL AV.;802;BARRACAS;COMUNA 4;1270;C1270AAV;-34.637919698636594;-58.37461816163098
274;GRUPO ESCULTORICO;1;BRONCE;LA MADRE;TENTI, PEDRO;PLAZA COLOMBIA;PLAZA COLOMBIA;MONTES DE OCA, MANUEL AV. 802;MONTES DE OCA, MANUEL AV.;802;BARRACAS;COMUNA 4;1270;C1270AAV;-34.637919698636594;-58.37461816163098
275;PLACA Y MONOLITO;1;BRONCE Y MAMPOSTERIA;HJE. AL ALMIRANTE BROWN;;PLAZA COLOMBIA;PLAZA COLOMBIA;MONTES DE OCA, MANUEL AV. 802;MONTES DE OCA, MANUEL AV.;802;BARRACAS;COMUNA 4;1270;C1270AAV;-34.637919698636594;-58.37461816163098
276;PLACA Y MONOLITO;1;BRONCE Y MAMPOSTERIA;HJE. AL ALMIRANTE BROWN;;PLAZA COLOMBIA;PLAZA COLOMBIA;MONTES DE OCA, MANUEL AV. 802;MONTES DE OCA, MANUEL AV.;802;BARRACAS;COMUNA 4;1270;C1270AAV;-34.637919698636594;-58.37461816163098
277;PLACA Y MONOLITO;1;BRONCE Y MAMPOSTERIA;HJE. AL GRL. SAN MARTINN;;PLAZA COLOMBIA;PLAZA COLOMBIA;MONTES DE OCA, MANUEL AV. 802;MONTES DE OCA, MANUEL AV.;802;BARRACAS;COMUNA 4;1270;C1270AAV;-34.637919698636594;-58.37461816163098
279;ESTATUA;1;BRONCE;EL PEÑADOR;RODIN, AUGUSTO;PLAZA CONGRESO;PLAZA CONGRESO;RIVADAVIA AV. 1602;RIVADAVIA AV.;1602;MONSERRAT;COMUNA 1;1033;C1033AAT;-34.60917841529358;-58.389400222141646
280;FAROLA;1;BRONCE Y GRANITO;THOMAS A. EDISON;TROIANI, TROIANO;PLAZA CONGRESO;PLAZA CONGRESO;RIVADAVIA AV. 1602;RIVADAVIA AV.;1602;MONSERRAT;COMUNA 1;1033;C1033AAT;-34.60917841529358;-58.389400222141646
281;MONOLITO;1;GRANITO;HJE. A GUIDO SPANO-FERNANDEZ MORENO;;PLAZA CONGRESO;PLAZA CONGRESO;RIVADAVIA AV. 1602;RIVADAVIA AV.;1602;MONSERRAT;COMUNA 1;1033;C1033AAT;-34.60917841529358;-58.389400222141646
282;PLACA Y MONOLITO;1;BRONCE Y MAMPOSTERIA;HJE. AL AUTOMOVIL CLUB ARGENTINO;;PLAZA CONGRESO;PLAZA CONGRESO;RIVADAVIA AV. 1602;RIVADAVIA AV.;1602;MONSERRAT;COMUNA 1;1033;C1033AAT;-34.60917841529358;-58.389400222141646
283;PLACA Y MONOLITO;1;BRONCE Y MAMPOSTERIA;HJE. AL MILENIO DE POLONIA;;PLAZA CONGRESO;PLAZA CONGRESO;RIVADAVIA AV. 1602;RIVADAVIA AV.;1602;MONSERRAT;COMUNA 1;1033;C1033AAT;-34.60917841529358;-58.389400222141646
284;PLACA Y MONOLITO;1;BRONCE Y MAMPOSTERIA;HJE. 150° ANIVERSARIO DE LA INDEPEND;;PLAZA CONGRESO;PLAZA CONGRESO;RIVADAVIA AV. 1602;RIVADAVIA AV.;1602;MONSERRAT;COMUNA 1;1033;C1033AAT;-34.60917841529358;-58.389400222141646
285;PLACA Y MONOLITO;1;BRONCE Y MAMPOSTERIA;NOMENCLATURA OBRA 174;D.G.M. / M.O.A;PARQUE DE LOS PATRICIOS;PARQUE DE LOS PATRICIOS;CASEROS AV. Y MONTEAGUDO;CASEROS AV.;;PARQUE PATRICIOS;COMUNA 4;;;-34.63711738161982;-58.40561079435866
287;PLACA Y MONOLITO;1;BRONCE Y MAMPOSTERIA;HJE. 150° ANIVERSARIO DE LA INDEPEND;;PLAZA CONGRESO;PLAZA CONGRESO;RIVADAVIA AV. 1602;RIVADAVIA AV.;1602;MONSERRAT;COMUNA 1;1033;C1033AAT;-34.60917841529358;-58.389400222141646
289;PLACA Y MONOLITO;1;BRONCE Y MAMPOSTERIA;HJE.A DARWIN PASSAPONTI;D.G.M.A. Y P.;CANTERO CENTRAL DARWIN PASSAPONTI;CANTERO CENTRAL DARWIN PASSAPONTI;GARCIA DEL RIO AV. 2539;GARCIA DEL RIO AV.;2539;SAAVEDRA;COMUNA 12;1429;C1429DEB;-34.548637623879806;-58.47068278426384
291;MONUMENTO;1;BRONCE Y MARMOL;JUAN BAUTISTA ALBERDI;ARRIGUTTI.M CORVO,C.;PLAZA CONSTITUCION;PLAZA CONSTITUCION;LIMA 1563;LIMA;1563;CONSTITUCION;COMUNA 1;1138;C1138ACG;-34.626563374935216;-58.38234371599969
293;FUENTE;2;MAMPOSTERIA Y LAJAS;MOTIVO DECORATIVO;DIRECCION DE PASEOS;PLAZA CONSTITUCION;PLAZA CONSTITUCION;LIMA 1563;LIMA;1563;CONSTITUCION;COMUNA 1;1138;C1138ACG;-34.626563374935216;-58.38234371599969
294;PLACA Y MONOLITO;1;BRONCE Y MAMPOSTERIA;NOMENCLATURA LA AGRICULTURA;D.G.O.M;BIBLIOTECA EL PROGRESO;BIBLIOTECA EL PROGRESO;RIESTRA AV. 5655;RIESTRA AV.;5655;VILLA LUGANO;COMUNA 8;1439;C1439BYH;-34.67680478758708;-58.474957215678586
297;GRUPO ESCULTORICO;1;MARMOL;CAZADOR DE AGUILAS;GUILLOT, ANTONIO;PLAZA CONSTITUCION;PLAZA CONSTITUCION;LIMA 1563;LIMA;1563;CONSTITUCION;COMUNA 1;1138;C1138ACG;-34.626563374935216;-58.38234371599969
298;PLACA Y MONOLITO;1;BRONCE Y MAMPOSTERIA;HJE. A DOMINGO F. SARMIENTO;D.G.O.M;PARQUE CHACABUCO;PARQUE CHACABUCO;PERON, EVA AV. 1410;PERON, EVA AV.;1410;PARQUE CHACABUCO;COMUNA 7;1406;C1406HMP;-34.632902763217736;-58.44476251965362
299;MONUMENTO;1;GRANITO Y BRONCE;GRL. JOSE ANTONIO PAEZ;RUS;PLAZA CONSTITUCION;PLAZA CONSTITUCION;LIMA 1563;LIMA;1563;CONSTITUCION;COMUNA 1;1138;C1138ACG;-34.626563374935216;-58.38234371599969
304;PLACA;1;ANTIMONIO;NOMENCLATURA DE PARQUE;D.G.O.M.;PARQUE AVELLANEDA;PARQUE AVELLANEDA;DIRECTORIO AV. Y LACARRA;DIRECTORIO AV.;;PARQUE AVELLANEDA;COMUNA 9;;;-34.6412975520066;-58.47992772490574
307;FUENTE;1;BRONCE Y PIEDRA;LAS TARASCAS;SANCHEZ MARTINEZ, S.;PLAZA DANTE;PLAZA DANTE;DEL LIBERTADOR AV. Y PUEYRREDON AV.;DEL LIBERTADOR AV.;;RECOLETA;COMUNA 2;;;-34.58475337564561;-58.391724851214896
308;MASTIL;1;MAMPOSTERIA;HJE. A LA BANDERA;D.G.O.M.;PZTA DE LA BANDERA;PZTA DE LA BANDERA;JUSTO, JUAN B. AV. Y MELO, VIRREY;JUSTO, JUAN B. AV.;;VELEZ SARSFIELD;COMUNA 10;;;-34.62875294065485;-58.49366947292583
309;MASTIL;1;MAMPOSTERIA;HJE. A LA BANDERA;D.G.O.M.;PZTA RICARDO GUTIERREZ;PZTA RICARDO GUTIERREZ;ESTADO PLURINACIONAL DE BOLIVIA Y SASTRE, MARCOS;ESTADO PLURINACIONAL DE BOLIVIA;;;COMUNA 11;;;-34.60117156541749;-58.48418557586219
311;MASTIL;1;MAMPOSTERIA;HJE. A LA BANDERA;D.G.O.M.;PZTA CONSTANCIO C VIGIL;PZTA CONSTANCIO C VIGIL;PUEYRREDON, HONORIO, DR. AV. Y SUNCHALES;PUEYRREDON, HONORIO, DR. AV.;;VILLA CRESPO;COMUNA 15;;;-34.59862851269342;-58.452989904144054
314;PLACA Y MONOLITO;1;BRONCE Y MAMPOSTERIA;NOMENCLATURA DE PLAZA;;PLAZA DANTE;PLAZA DANTE;DEL LIBERTADOR AV. Y PUEYRREDON AV.;DEL LIBERTADOR AV.;;RECOLETA;COMUNA 2;;;-34.58475337564561;-58.391724851214896
316;ESTATUA;1;GRANITO;LA MEDITACION;LABOURDETTE, JUAN C.;PLAZA DE LA BANDERA;PLAZA DE LA BANDERA;JUSTO, JUAN B. AV. 7352;JUSTO, JUAN B. AV.;7352;VELEZ SARSFIELD;COMUNA 10;1407;C1407FAY;-34.62876187947622;-58.49368259383482
317;PLACA;1;BRONCE;INAUGURACION PARQUE SARMIENTO;D.G.O.M.;PARQUE SARMIENTO;PARQUE SARMIENTO;BALBIN, RICARDO, DR. AV. 4750;BALBIN, RICARDO, DR. AV.;4750;SAAVEDRA;COMUNA 12;1430;C1430ABS;-34.5531245823791;-58.49828737110762
318;PLACA Y MONOLITO;1;BRONCE Y MAMPOSTERIA;HJE.A LA BANDERA;;PLAZA DE LA BANDERA;PLAZA DE LA BANDERA;ALBERDI, JUAN BAUTISTA AV. 7352;ALBERDI, JUAN BAUTISTA AV.;7352;MATADEROS;COMUNA 9;1440;C1440ABY;-34.66120905354566;-58.51611030147476
324;FUENTE;1;MARMOL;MOTIVO DECORATIVO;E.A.I.M.;PLAZA DE LA MISERICORDIA;PLAZA DE LA MISERICORDIA;DIRECTORIO AV. 2000;DIRECTORIO AV.;2000;FLORES;COMUNA 7;1406;C1406GZV;-34.63188704593448;-58.455348703751234
326;PLACA Y MONOLITO;1;BRONCE Y MAMPOSTERIA;NOMENCLATURA DE PLAZOLETA;D.G.O.M.;PZTA ALFONSINA STORNI;PZTA ALFONSINA STORNI;SAN JUAN AV. Y CEVALLOS, VIRREY;SAN JUAN AV.;;CONSTITUCION;COMUNA 1;;;-34.622554487761626;-58.38865683136545
327;PLACA Y MONOLITO;1;BRONCE Y MAMPOSTERIA;NOMENCLATURA PLAZOLETA;D.G.O.M.;PZTA ROSARIO VERA PEÑALOZA;PZTA ROSARIO VERA PE?ALOZA;PIEDRAS Y SAN JUAN AV.;PIEDRAS;;SAN TELMO;COMUNA 1;;;-34.62206070002504;-58.37720542865125
330;JARRON;2;CEMENTO PATINADO;MOTIVO DECORATIVO;M.O.A.;PLAZA DE LA MISERICORDIA;PLAZA DE LA MISERICORDIA;DIRECTORIO AV. 2000;DIRECTORIO AV.;2000;FLORES;COMUNA 7;1406;C1406GZV;-34.63188704593448;-58.455348703751234
332;BUSTO;1;CEMENTO PATINADO;GRL. JOSE DE SAN MARTINN;M.O.A.;PLAZA DE LA MISERICORDIA;PLAZA DE LA MISERICORDIA;DIRECTORIO AV. 2000;DIRECTORIO AV.;2000;FLORES;COMUNA 7;1406;C1406GZV;-34.63188704593448;-58.455348703751234
334;PLACA Y MONOLITO;1;BRONCE Y MAMPOSTERIA;HJE.CAMARA DIP.A CARLOS GARDEL;D.G.O.M.;PZTA DEL TANGO;PZTA DEL TANGO;CORRIENTES AV. 80;CORRIENTES AV.;80;SAN NICOLAS;COMUNA 1;1043;C1043AAN;-34.60296134959952;-58.36884913215478
336;PLACA Y MONOLITO;1;BRONCE Y MAMPOSTERIA;NOMENCLATURA DE PLAZOLETA;D.G.O.M.;PZTA FIDEL SARMIENTO;PZTA FIDEL SARMIENTO;GANDARA Y BERLIN;GANDARA;;PARQUE CHAS;COMUNA 15;;;-34.58295730708665;-58.48027957284024
337;PLACA;1;MARMOL;NOMENCLATURA DE PLAZA;;PLAZA DE LA MISERICORDIA;PLAZA DE LA MISERICORDIA;DIRECTORIO AV. 2000;DIRECTORIO AV.;2000;FLORES;COMUNA 7;1406;C1406GZV;-34.63188704593448;-58.455348703751234
340;PLACA Y MONOLITO;1;BRONCE Y MAMPOSTERIA;NOMENCLATURA DE PLAZOLETA;D.G.O.M.;PZTA DANTE LINYERA;PZTA DANTE LINYERA;SAN MARTINN AV. 5002;SAN MARTINN AV.;5002;VILLA DEL PARQUE;COMUNA 11;1417;C1417DSX;-34.59745131742704;-58.488706375063664
345;PLACA Y MONOLITO;1;BRONCE Y MAMPOSTERIA;ESCUDO DE SAN JUAN;D.G.M.;PLAZA DE LA REPUBLICA;PLAZA DE LA REPUBLICA;CORRIENTES AV. 1066;CORRIENTES AV.;1066;SAN NICOLAS;COMUNA 1;1043;C1043AAX;-34.6036068647746;-58.38180145567765
346;PLACA Y MONOLITO;1;BRONCE Y MAMPOSTERIA;ESCUDO DE LA RIOJA;D.G.M.;PLAZA DE LA REPUBLICA;PLAZA DE LA REPUBLICA;CORRIENTES AV. 1066;CORRIENTES AV.;1066;SAN NICOLAS;COMUNA 1;1043;C1043AAX;-34.6036068647746;-58.38180145567765
347;PLACA Y MONOLITO;1;BRONCE Y MAMPOSTERIA;ESCUDO DE CATAMARCA;D.G.M.;PLAZA DE LA REPUBLICA;PLAZA DE LA REPUBLICA;CORRIENTES AV. 1066;CORRIENTES AV.;1066;SAN NICOLAS;COMUNA 1;1043;C1043AAX;-34.6036068647746;-58.38180145567765
348;PLACA Y MONOLITO;1;BRONCE Y MAMPOSTERIA;NOMENCLATURA DEL PARQUE SAAVEDRA;D.G.O.M.;PARQUE SAAVEDRA;PARQUE SAAVEDRA;GARCIA DEL RIO AV.;GARCIA DEL RIO AV.;;;COMUNA 12;;;;
350;PLACA Y MONOLITO;1;BRONCE Y MAMPOSTERIA;ESCUDO DE SALTA;D.G.M.;PLAZA DE LA REPUBLICA;PLAZA DE LA REPUBLICA;CORRIENTES AV. 1066;CORRIENTES AV.;1066;SAN NICOLAS;COMUNA 1;1043;C1043AAX;-34.6036068647746;-58.38180145567765
351;PLACA Y MONOLITO;1;BRONCE Y MAMPOSTERIA;ESCUDO DE JUJUY;D.G.M.;PLAZA DE LA REPUBLICA;PLAZA DE LA REPUBLICA;CORRIENTES AV. 1066;CORRIENTES AV.;1066;SAN NICOLAS;COMUNA 1;1043;C1043AAX;-34.6036068647746;-58.38180145567765
353;PLACA Y MONOLITO;1;BRONCE Y MAMPOSTERIA;HJE.VECINOS PASEO DE LA PAZ;D.G.O.M.;PASEO DE LA PAZ;PASEO DE LA PAZ;HOLMBERG 2410;HOLMBERG;2410;;COMUNA 12;1430;C1430DOT;-34.569530394771895;-58.47670182490444
355;PLACA Y MONOLITO;1;BRONCE Y MAMPOSTERIA;NOMENCLATURA OBRA LA AGRICULTURA;D.G.O.M.;PZTA MALAGARRIGA;PZTA MALAGARRIGA;CABILDO AV. 4002;CABILDO AV.;4002;SAAVEDRA;COMUNA 12;1429;C1429AAY;-34.54639654356436;-58.470351717251916
356;PLACA Y MONOLITO;1;BRONCE Y MAMPOSTERIA;NOMENC.OBRA LA REPUBLICA ARGENTINA;D.G.O.M.;ESCUELAS RAGGIO;ESCUELAS RAGGIO;DEL LIBERTADOR AV. 8635;DEL LIBERTADOR AV.;8635;NUÑEZ;COMUNA 13;1429;C1429BNG;-34.536106731430834;-58.46649604824859
360;PLACA Y MONOLITO;1;BRONCE Y MAMPOSTERIA;NOMENCLATURA OBRA 325;D.G.O.M.;AVDAS F ALCORTA Y DORREGO;AVDAS F ALCORTA Y DORREGO;FIGUEROA ALCORTA, PRES. AV. Y DORREGO AV.;FIGUEROA ALCORTA, PRES. AV.;;PALERMO;COMUNA 14;;;-34.565527514500815;-58.4198318345125
365;PLACA Y MONOLITO;1;BRONCE Y MAMPOSTERIA;HJE.AL DR.GERARDO H.ARMAUER HANSEN;D.G.O.M.;LA PAMPA Y G H ARMAUER HANSEN;LA PAMPA Y G H ARMAUER HANSEN;LA PAMPA Y ARMAUER HANSEN, GERARDO, DR.;LA PAMPA;;BELGRANO;COMUNA 13;;;-34.55423903261308;-58.43634869463139
366;PLACA Y MONOLITO;1;BRONCE Y MAMPOSTERIA;ESCUDO DE SANTA CRUZ;D.G.M.;PLAZA DE LA REPUBLICA;PLAZA DE LA REPUBLICA;CORRIENTES AV. 1066;CORRIENTES AV.;1066;SAN NICOLAS;COMUNA 1;1043;C1043AAX;-34.6036068647746;-58.38180145567765
369;PLACA Y MONOLITO;1;BRONCE Y MAMPOSTERIA;NOMENCLATURA OBRA LA NAVEGACION;D.G.O.M.;PASEO REPUBLICA DE FILIPINAS;PASEO REPUBLICA DE FILIPINAS;DE LOS INCAS AV. Y FOREST AV.;DE LOS INCAS AV.;;;COMUNA 13;;;-34.575102960508374;-58.463188213544335
370;PLACA Y MONOLITO;1;BRONCE Y MAMPOSTERIA;ESCUDO DE LA PAMPA;D.G.M.;PLAZA DE LA REPUBLICA;PLAZA DE LA REPUBLICA;CORRIENTES AV. 1066;CORRIENTES AV.;1066;SAN NICOLAS;COMUNA 1;1043;C1043AAX;-34.6036068647746;-58.38180145567765
371;PLACA Y MONOLITO;1;BRONCE Y MAMPOSTERIA;HJE.AL GENERAL FRANCISCO RAMIREZ;D.G.O.M.;PZTA GENERAL FRANCISCO RAMIREZ;PZTA GENERAL FRANCISCO RAMIREZ;PEÑAZA, MANUELA 2700;PEÑAZA, MANUELA;2700;NUÑEZ;COMUNA 13;1429;C1429CCP;-34.5532576967371;-58.46901594101033
375;PLACA Y MONOLITO;1;BRONCE Y MAMPOSTERIA;ESCUDO DE CORDOBA;FERRARO, JUAN CARLOS;PLAZA DE LA REPUBLICA;PLAZA DE LA REPUBLICA;CORRIENTES AV. 1066;CORRIENTES AV.;1066;SAN NICOLAS;COMUNA 1;1043;C1043AAX;-34.6036068647746;-58.38180145567765
376;PLACA Y MONOLITO;1;BRONCE Y MAMPOSTERIA;HJE.AL CAFE DE HANSEN;D.G.O.M.;AVDAS F ALCORTA Y SARMIENTO;AVDAS F ALCORTA Y SARMIENTO;FIGUEROA ALCORTA, PRES. AV. Y SARMIENTO AV.;FIGUEROA ALCORTA, PRES. AV.;;PALERMO;COMUNA 14;;;-34.571545801660946;-58.41158090327671
378;PLACA Y MONOLITO;1;BRONCE Y MAMPOSTERIA;NOMENCLATURA DE PLAZOLETA;D.G.O.M.;PZTA TTE GRAL EDUARDO RACEDO;PZTA TTE GRAL EDUARDO RACEDO;CASTILLA, RAMON, MARISCAL Y FIGUEROA ALCORTA, PRES. AV.;CASTILLA, RAMON, MARISCAL;;;COMUNA 14;;;-34.57964501174115;-58.400222177133415
380;PLACA Y MONOLITO;1;BRONCE Y MAMPOSTERIA;HJE.A CRISTOBAL M. HICKEN;D.G.O.M.;CEMENTERIO DE LA RECOLETA;CEMENTERIO DE LA RECOLETA;JUNIN 1760;JUNIN;1760;RECOLETA;COMUNA 2;1113;C1113AAT;-34.58813529168293;-58.39238435125078
381;PLACA Y MONOLITO;1;BRONCE Y MAMPOSTERIA;HJE.A JUAN BAUTISTA ALBERDI;D.G.O.M.;CEMENTERIO DE LA RECOLETA;CEMENTERIO DE LA RECOLETA;JUNIN 1760;JUNIN;1760;RECOLETA;COMUNA 2;1113;C1113AAT;-34.58813529168293;-58.39238435125078
383;PLACA Y MONOLITO;1;BRONCE Y MAMPOSTERIA;ESCUDO DE BUENOS AIRES;FERRARO, JUAN CARLOS;PLAZA DE LA REPUBLICA;PLAZA DE LA REPUBLICA;CORRIENTES AV. 1066;CORRIENTES AV.;1066;SAN NICOLAS;COMUNA 1;1043;C1043AAX;-34.6036068647746;-58.38180145567765
386;PLACA Y MONOLITO;1;BRONCE Y MAMPOSTERIA;HJE.A JULIO DE CARO;D.G.O.M.;PZTA JULIO DE CARO;PZTA JULIO DE CARO;DEL LIBERTADOR AV. 1201;DEL LIBERTADOR AV.;1201;RECOLETA;COMUNA 2;1112;C1112ABC;-34.585314237304964;-58.3886610931241
389;PLACA Y MONOLITO;1;BRONCE Y MAMPOSTERIA;NOMENCLATURA OBRA 98;D.G.O.M.;PZTA CANDIDO DE LASALA;PZTA CANDIDO DE LASALA;SANTA FE AV. 716;SANTA FE AV.;716;RETIRO;COMUNA 1;1059;C1059ABO;-34.595555678644054;-58.3773309797337
391;PLACA Y MONOLITO;1;BRONCE Y MAMPOSTERIA;ARBOL DE CONSERVACION OBLIGATORIA;D.G.O.M.;ESMERALDA Y ARENALES;ESMERALDA Y ARENALES;ESMERALDA Y ARENALES;ESMERALDA;;RETIRO;COMUNA 1;;;-34.59409499936338;-58.37854401711538
395;PLACA Y MONOLITO;1;BRONCE Y MAMPOSTERIA;HJE.REVOLUCION DE 1890;D.G.O.M.;PZTA AZUCENA MAIZANI;PZTA AZUCENA MAIZANI;DEL LIBERTADOR AV. Y RAMOS MEJIA, JOSE MARIA, DR. AV.;DEL LIBERTADOR AV.;;;COMUNA 1;;;-34.59265225493318;-58.37544732178452
396;PLACA Y MONOLITO;1;ALUMINIO;ESCUDO DE SANTA CRUZ;M.O.A.;PLAZA DE LA REPUBLICA;PLAZA DE LA REPUBLICA;CORRIENTES AV. 1066;CORRIENTES AV.;1066;SAN NICOLAS;COMUNA 1;1043;C1043AAX;-34.6036068647746;-58.38180145567765
398;PLACA Y MONOLITO;1;ALUMINIO;ESCUDO DEL CHUBUT;M.O.A.;PLAZA DE LA REPUBLICA;PLAZA DE LA REPUBLICA;CORRIENTES AV. 1066;CORRIENTES AV.;1066;SAN NICOLAS;COMUNA 1;1043;C1043AAX;-34.6036068647746;-58.38180145567765
399;PLACA Y MONOLITO;1;ALUMINIO;ESCUDO DE NEUQUEN;M.O.A.;PLAZA DE LA REPUBLICA;PLAZA DE LA REPUBLICA;CORRIENTES AV. 1066;CORRIENTES AV.;1066;SAN NICOLAS;COMUNA 1;1043;C1043AAX;-34.6036068647746;-58.38180145567765
401;PLACA Y MONOLITO;1;ALUMINIO;ESCUDO DE RIO NEGRO;M.O.A.;PLAZA DE LA REPUBLICA;PLAZA DE LA REPUBLICA;CORRIENTES AV. 1066;CORRIENTES AV.;1066;SAN NICOLAS;COMUNA 1;1043;C1043AAX;-34.6036068647746;-58.38180145567765
402;TEMPLETE;1;MAMPOSTERIA Y MAYOLICA;VIRGEN DE LUJAN;D.G.O.M.;AV GENERAL PAZ Y JUAN B JUSTO;AV GENERAL PAZ Y JUAN B JUSTO;PAZ, GRAL. AV. Y JUSTO, JUAN B. AV.;PAZ, GRAL. AV.;;VERSALLES;COMUNA 10;;;-34.634686548121465;-58.52899576163767
403;MONOLITO MONUMENTAL;1;;HOMENAJE AL DEPORTE;D.G.O.M.;AVDAS GENERAL PAZ Y ROCA;AVDAS GENERAL PAZ Y ROCA;PAZ, GRAL. AV. Y ROCA, CNEL. AV.;PAZ, GRAL. AV.;;VILLA RIACHUELO;COMUNA 8;;;-34.698431182542535;-58.4706449718
409;PLACA;1;MARMOL;HJE. A ARISTIDES DE SOUSA MENDES;;PLAZA DE LA SHOA;PLAZA DE LA SHOA;DEL LIBERTADOR AV. 3883;DEL LIBERTADOR AV.;3883;PALERMO;COMUNA 14;1425;C1425ABL;-34.571531773964686;-58.42281214797015
410;PLACA;1;MARMOL;HJE. A EMILIE Y OSKAR SCHINDLER;;PLAZA DE LA SHOA;PLAZA DE LA SHOA;DEL LIBERTADOR AV. 3883;DEL LIBERTADOR AV.;3883;PALERMO;COMUNA 14;1425;C1425ABL;-34.571531773964686;-58.42281214797015
412;PLACA;1;MARMOL;HJE. A ARA JERETZIAN;;PLAZA DE LA SHOA;PLAZA DE LA SHOA;DEL LIBERTADOR AV. 3883;DEL LIBERTADOR AV.;3883;PALERMO;COMUNA 14;1425;C1425ABL;-34.571531773964686;-58.42281214797015
413;PLACA;1;MARMOL;HJE. A ANTON SCHIMID;;PLAZA DE LA SHOA;PLAZA DE LA SHOA;DEL LIBERTADOR AV. 3883;DEL LIBERTADOR AV.;3883;PALERMO;COMUNA 14;1425;C1425ABL;-34.571531773964686;-58.42281214797015
414;PLACA;1;BRONCE;HJE.AL DR. SANTIAGO CAPORALE;D.G.O.P.;PASAJE PEÑADORES Y AV RIVADAVIA;PASAJE PEÑADORES Y AV RIVADAVIA;PEÑADORES Y RIVADAVIA AV.;PEÑADORES;;FLORES;COMUNA 7;;;-34.628996284682636;-58.463242817414525
415;PLACA;1;BRONCE;HJE. A HERMINIA BRUMANA;D.G.O.P.;PZTA HERMINIA BRUMANA;PZTA HERMINIA BRUMANA;BILBAO, FRANCISCO 2301;BILBAO, FRANCISCO;2301;FLORES;COMUNA 7;1406;C1406FFU;-34.63369121271799;-58.45878862931252
416;PLACA;1;MARMOL;HJE. A ANNA Y IOSIF NAZARUK;;PLAZA DE LA SHOA;PLAZA DE LA SHOA;DEL LIBERTADOR AV. 3883;DEL LIBERTADOR AV.;3883;PALERMO;COMUNA 14;1425;C1425ABL;-34.571531773964686;-58.42281214797015
417;PLACA;1;BRONCE;HJE. A LA COLECTIVIDAD COREANA;D.G.O.P.;PARQUE CHACABUCO;PARQUE CHACABUCO;PERON, EVA AV. 1410;PERON, EVA AV.;1410;PARQUE CHACABUCO;COMUNA 7;1406;C1406HMP;-34.632902763217736;-58.44476251965362
418;PLACA;1;MARMOL;HJE. A LUIZ MARTINS DE SOUSA DANTAS;;PLAZA DE LA SHOA;PLAZA DE LA SHOA;DEL LIBERTADOR AV. 3883;DEL LIBERTADOR AV.;3883;PALERMO;COMUNA 14;1425;C1425ABL;-34.571531773964686;-58.42281214797015
419;PLACA;1;BRONCE;HJE. A HAROLDO CONTI;D.G.O.P.;PZTA HAROLDO CONTI;PZTA HAROLDO CONTI;CALABRIA AV. Y VERA PEÑALOZA, ROSARIO;CALABRIA AV.;;PUERTO MADERO;COMUNA 1;;;-34.61715677387748;-58.358085545619254
424;PLACA;1;MARMOL;HJE. A HO FENG SHAN;;PLAZA DE LA SHOA;PLAZA DE LA SHOA;DEL LIBERTADOR AV. 3883;DEL LIBERTADOR AV.;3883;PALERMO;COMUNA 14;1425;C1425ABL;-34.571531773964686;-58.42281214797015
427;PLACA;1;BRONCE;HJE.A JULIO CORTAZAR;D.G.O.P.;PZTA JULIO CORTAZAR;PZTA JULIO CORTAZAR;BORGES, JORGE LUIS Y HONDURAS;BORGES, JORGE LUIS;;PALERMO;COMUNA 14;;;-34.58862539217248;-58.43032676182649
429;PLACA;1;MARMOL;HJE. A MANUEL MU?OZ ROMERO;;PLAZA DE LA SHOA;PLAZA DE LA SHOA;DEL LIBERTADOR AV. 3883;DEL LIBERTADOR AV.;3883;PALERMO;COMUNA 14;1425;C1425ABL;-34.571531773964686;-58.42281214797015
431;PLACA;1;BRONCE;HJE.A RAUL SOLDI;D.G.O.P.;PZTA RAUL SOLDI;PZTA RAUL SOLDI;DEL LIBERTADOR AV. 1247;DEL LIBERTADOR AV.;1247;RECOLETA;COMUNA 2;1112;C1112ABC;-34.58500714616178;-58.38991440402013
441;PLACA;1;MARMOL;HJE. A NIKOLAI LESCHINGER;;PLAZA DE LA SHOA;PLAZA DE LA SHOA;DEL LIBERTADOR AV. 3883;DEL LIBERTADOR AV.;3883;PALERMO;COMUNA 14;1425;C1425ABL;-34.571531773964686;-58.42281214797015
448;ESCULTURA;1;ACERO INOXIDABLE;FLORALIS GENERICA;CATALANO, EDUARDO;PLAZA DE LAS NACIONES UNIDAS;PLAZA DE LAS NACIONES UNIDAS;FIGUEROA ALCORTA, PRES. AV. 2300;FIGUEROA ALCORTA, PRES. AV.;2300;RECOLETA;COMUNA 2;1425;C1425CKO;-34.583019199953235;-58.39326278540908
449;PLACA Y MONOLITO;1;BRONCE Y MAMPOSTERIA;HJE.A LAS NACIONES UNIDAS;D.G.O.M.;PLAZA DE LAS NACIONES UNIDAS;PLAZA DE LAS NACIONES UNIDAS;FIGUEROA ALCORTA, PRES. AV. 2300;FIGUEROA ALCORTA, PRES. AV.;2300;RECOLETA;COMUNA 2;1425;C1425CKO;-34.583019199953235;-58.39326278540908
450;PLACA Y MONOLITO;1;BRONCE Y MAMPOSTERIA;HJE. AL ARBOL DEL OLIVO;D.G.O.P.;PLAZA DE LAS NACIONES UNIDAS;PLAZA DE LAS NACIONES UNIDAS;FIGUEROA ALCORTA, PRES. AV. 2300;FIGUEROA ALCORTA, PRES. AV.;2300;RECOLETA;COMUNA 2;1425;C1425CKO;-34.583019199953235;-58.39326278540908
451;PLACA Y MONOLITO;1;BRONCE Y MAMPOSTERIA;HJE. A JUAN CARLOS CHIAPPE;D.G.O.P.;PARQUE AVELLANEDA;PARQUE AVELLANEDA;DIRECTORIO AV. Y LACARRA;DIRECTORIO AV.;;PARQUE AVELLANEDA;COMUNA 9;;;-34.6412975520066;-58.47992772490574
453;PLACA Y MONOLITO;1;BRONCE Y MAMPOSTERIA;HJE. A FRANCISCO GIL;D.G.O.P.;AVDAS CENTENERA Y CRUZ;AVDAS CENTENERA Y CRUZ;BARCO CENTENERA DEL Y FERNANDEZ DE LA CRUZ, F., GRAL. AV.;BARCO CENTENERA DEL;;NUEVA POMPEYA;COMUNA 4;;;-34.64782187566754;-58.42842955878164
455;ESCULTURA;1;HIERRO Y VIDRIO;SOLDA TU NOMBRE EN RECOLETA;HERZBERG, CARLOS;PLAZA DE LAS NACIONES UNIDAS;PLAZA DE LAS NACIONES UNIDAS;FIGUEROA ALCORTA, PRES. AV. 2300;FIGUEROA ALCORTA, PRES. AV.;2300;RECOLETA;COMUNA 2;1425;C1425CKO;-34.583019199953235;-58.39326278540908
458;PLACA Y MONOLITO;1;BRONCE Y MAMPOSTERIA;HJE. A HEROES Y MARTIRES GHETTO VARSOVI;D.G.O.P.;PARQUE DEL CENTENARIO;PARQUE DEL CENTENARIO;GALLARDO, ANGEL AV. Y RIO DE JANEIRO;GALLARDO, ANGEL AV.;;;COMUNA 15;;;-34.60266946756511;-58.43333704541429
459;PLACA Y MONOLITO;1;BRONCE Y MAMPOSTERIA;HJE. A JOVENES CAIDOS GHETTO VARSOVIA;D.G.O.P.;PARQUE DEL CENTENARIO;PARQUE DEL CENTENARIO;GALLARDO, ANGEL AV. Y RIO DE JANEIRO;GALLARDO, ANGEL AV.;;;COMUNA 15;;;-34.60266946756511;-58.43333704541429
460;PLACA Y MONOLITO;1;BRONCE Y MAMPOSTERIA;HJE. A LOLA MORA;D.G.O.P.;PARQUE BALNEARIO SUR;PARQUE BALNEARIO SUR;PAZ, GRAL. AV. 16802;PAZ, GRAL. AV.;16802;;COMUNA 8;1439;C1439HNO;-34.69801445074425;-58.46981073107586
463;MASTIL;1;HIERRO Y MAMPOSTERIA;HOMENAJE A LA BANDERA;;PLAZA DE LAS NACIONES UNIDAS;PLAZA DE LAS NACIONES UNIDAS;FIGUEROA ALCORTA, PRES. AV. 2300;FIGUEROA ALCORTA, PRES. AV.;2300;RECOLETA;COMUNA 2;1425;C1425CKO;-34.583019199953235;-58.39326278540908
465;PLACA Y MONOLITO;1;BRONCE Y MAMPOSTERIA;HJE. A LOS COLEGIALES;;PLAZA DE LOS COLEGIALES;PLAZA DE LOS COLEGIALES;MATIENZO, BENJAMIN, TENIENTE 2901;MATIENZO, BENJAMIN, TENIENTE;2901;COLEGIALES;COMUNA 13;1426;C1426DBC;-34.57687995243623;-58.44380208284961
466;PLACA Y MONOLITO;1;BRONCE Y MAMPOSTERIA;HJE.GRAL. MARTIN MIGUEL DE GUEMES;D.G.O.P.;PARQUE SAN BENITO;PARQUE SAN BENITO;FIGUEROA ALCORTA, PRES. AV. 6700;FIGUEROA ALCORTA, PRES. AV.;6700;BELGRANO;COMUNA 13;1428;C1428BCP;-34.55076452781657;-58.437555981082845
467;PLACA Y MONOLITO;1;BRONCE Y MAMPOSTERIA;HJE.A INVENTORES ARGENTINOS;D.G.O.P.;PASEO REPUBLICA DE FILIPINAS;PASEO REPUBLICA DE FILIPINAS;DE LOS INCAS AV. Y FOREST AV.;DE LOS INCAS AV.;;;COMUNA 13;;;-34.575102960508374;-58.463188213544335
475;PLACA Y MONOLITO;1;BRONCE Y MAMPOSTERIA;HJE. A ENRIQUEONOVILLEGAS;D.G.O.P.;PZTA DEL ARBOL;PZTA DEL ARBOL;AGUERO 1395;AGUERO;1395;RECOLETA;COMUNA 2;1425;C1425EHE;-34.59320838299206;-58.408464908147735
478;PLACA;1;BRONCE;HJE. A JAQUELINE KARINA SANTILLAN;D.G.O.P.;PLAZA DE LOS PERIODISTAS;PLAZA DE LOS PERIODISTAS;NAZCA AV. 900;NAZCA AV.;900;FLORES;COMUNA 7;1406;C1406AJU;-34.62231365012345;-58.473507224857585
480;FUENTE CIRCULAR;1;FIBROCEMENTO;MOTIVO DECORATIVO;M.O.A.;PLAZA DE LOS PERIODISTAS;PLAZA DE LOS PERIODISTAS;NAZCA AV. 900;NAZCA AV.;900;FLORES;COMUNA 7;1406;C1406AJU;-34.62231365012345;-58.473507224857585
482;PLACA Y MONOLITO;1;MARMOL Y MAMPOSTERIA;HJE.A JEAN MERMOZ;D.G.P. P. Y M.O.A.;AV RAFAEL OBLIGADO (AEROPARQUE);AV RAFAEL OBLIGADO (AEROPARQUE);OBLIGADO RAFAEL, AV.COSTANERA Y SARMIENTO AV.;OBLIGADO RAFAEL, AV.COSTANERA;;;COMUNA 14;;;-34.567916364970955;-58.40194257146334
485;RELOJ SOLAR;1;MARMOL;MOTIVO DECORATIVO;D.O.M.;PARQUE ALTE BROWN;PARQUE ALTE BROWN;SALVADORES, CNEL. E IRALA;SALVADORES, CNEL.;;BOCA;COMUNA 4;;;-34.6444435207776;-58.36546878215825
491;PLACA Y MONOLITO;1;BRONCE Y MAMPOSTERIA;HJE. A HIPOLITO YRIGOYEN;D.O.M.;AV RIVADAVIA E HIPOLITO YRIGOYEN;AV RIVADAVIA E HIPOLITO YRIGOYEN;SIN NOMBRE OFICIAL (ALT. RIVADAVIA, AV. 4500) Y YRIGOYEN, HIPOLITO AV.;SIN NOMBRE OFICIAL (ALT. RIVADAVIA, AV. 4500);;ALMAGRO;COMUNA 5;;;-34.61507762215666;-58.42843190877187
493;PLACA Y MONOLITO;1;BRONCE Y MAMPOSTERIA;NOMENCLATURA DE PLAZA;D.O.M.;PLAZA DE LOS VIVEROS;PLAZA DE LOS VIVEROS;FERRE 6102;FERRE;6102;VILLA RIACHUELO;COMUNA 8;1439;C1439DRB;-34.69133311647466;-58.464140905493394
494;MASTIL;1;HIERRO Y MAMPOSTERIA;HOMENAJE A LA BANDERA;DIRECCION DE PASEOS;PLAZA DE LOS VIVEROS;PLAZA DE LOS VIVEROS;FERRE 6102;FERRE;6102;VILLA RIACHUELO;COMUNA 8;1439;C1439DRB;-34.69133311647466;-58.464140905493394
495;MONUMENTO;1;MAMPOSTERIA;PIRAMIDE DE MAYO;CA?ETE, PEDRO VICENTE;PLAZA DE MAYO;PLAZA DE MAYO;YRIGOYEN, HIPOLITO AV. 401;YRIGOYEN, HIPOLITO AV.;401;MONSERRAT;COMUNA 1;1086;C1086AAE;-34.6089262898865;-58.37215533392078
496;FUENTE;1;MAMPOSTERIA;MOTIVO DECORATIVO;D.O.M.;PZTA REGIMIENTO 1 DE PATRICIOS;PZTA REGIMIENTO 1 DE PATRICIOS;SANTA FE AV. 4815;SANTA FE AV.;4815;PALERMO;COMUNA 14;1425;C1425BHK;-34.57722853104102;-58.42860423783285
499;PLACA;1;BRONCE;HJE.A BENITO CARRASCO;D.O.M.;ROSEDAL;ROSEDAL;ISABEL, INFANTA AV. 900;ISABEL, INFANTA AV.;900;PALERMO;COMUNA 14;1425;C1425CHA;-34.57006679763025;-58.42048286500513
501;MASTIL;1;HIERRO;HJE. A LA BANDERA;D.G.M;PLAZA DE MAYO;PLAZA DE MAYO;YRIGOYEN, HIPOLITO AV. 401;YRIGOYEN, HIPOLITO AV.;401;MONSERRAT;COMUNA 1;1086;C1086AAE;-34.6089262898865;-58.37215533392078
505;PLACA Y MONOLITO;1;BRONCE Y MAMPOSTERIA;NOMENCLATURA OBRA 37;D.O.M.;PARQUE DEL CENTENARIO;PARQUE DEL CENTENARIO;GALLARDO, ANGEL AV. Y RIO DE JANEIRO;GALLARDO, ANGEL AV.;;;COMUNA 15;;;-34.60266946756511;-58.43333704541429
506;PLACA Y MONOLITO;1;BRONCE Y MAMPOSTERIA;NOMENCLATURA OBRA 39;D.O.M.;PARQUE DEL CENTENARIO;PARQUE DEL CENTENARIO;GALLARDO, ANGEL AV. Y RIO DE JANEIRO;GALLARDO, ANGEL AV.;;;COMUNA 15;;;-34.60266946756511;-58.43333704541429
507;PLACA Y MONOLITO;1;BRONCE Y MAMPOSTERIA;NOMENCLATURA OBRA 572;D.O.M.;PARQUE DEL CENTENARIO;PARQUE DEL CENTENARIO;GALLARDO, ANGEL AV. Y RIO DE JANEIRO;GALLARDO, ANGEL AV.;;;COMUNA 15;;;-34.60266946756511;-58.43333704541429
509;PLACA Y MONOLITO;1;BRONCE Y MAMPOSTERIA;HJE. A GASPAR JOVELLANOS;D.O.M.;PARQUE BALNEARIO SUR;PARQUE BALNEARIO SUR;PAZ, GRAL. AV. 16802;PAZ, GRAL. AV.;16802;;COMUNA 8;1439;C1439HNO;-34.69801445074425;-58.46981073107586
526;PLACA Y MONOLITO;1;BRONCE Y MAMPOSTERIA;HJE. A BENITO PEREZ GALDOS;D.O.M.;JARDIN DE LOS POETAS;JARDIN DE LOS POETAS;ISABEL, INFANTA AV. 900;ISABEL, INFANTA AV.;900;;COMUNA 14;1425;C1425CHA;-34.57006679763025;-58.42048286500513
528;PLACA Y MONOLITO;1;BRONCE Y MAMPOSTERIA;NOMENCLATURA DE PLAZOLETA;D.O.M.;PZTA CANDIDO DE LASALA;PZTA CANDIDO DE LASALA;SANTA FE AV. 716;SANTA FE AV.;716;;COMUNA 1;1059;C1059ABO;-34.595555678644054;-58.3773309797337
529;PLACA Y MONOLITO;1;BRONCE Y MAMPOSTERIA;NOMENCLATURA OBRA 43;D.O.M.;AVDAS DEL LIBERTADOR Y CALLAO;AVDAS DEL LIBERTADOR Y CALLAO;DEL LIBERTADOR AV. Y CALLAO AV.;DEL LIBERTADOR AV.;;RECOLETA;COMUNA 2;;;-34.586585155522265;-58.38585230082456
530;PLACA Y MONOLITO;1;BRONCE Y MAMPOSTERIA;HJE.PLANTACION DE PALMERAS;D.O.M.;PZTA PIERRE DE COUBERTIN;PZTA PIERRE DE COUBERTIN;DEL LIBERTADOR AV. 550;DEL LIBERTADOR AV.;550;RETIRO;COMUNA 1;1001;C1001ABS;-34.588990727914016;-58.38143309229047
533;GRUPO ESCULTORICO;1;CEMENTO PATINADO;LA FAMILIA;SCALISI, ARMANDO;PLAZA DEL ANGEL GRIS;PLAZA DEL ANGEL GRIS;AVELLANEDA AV. 1856;AVELLANEDA AV.;1856;FLORES;COMUNA 7;1406;C1406FYQ;-34.62154793808413;-58.456800474929544
539;PLACA Y MONOLITO;1;BRONCE Y MAMPOSTERIA;ANIVERSARIO PARQUE PATRICIOS;D.O.M. Y M.O.A.;PARQUE DE LOS PATRICIOS;PARQUE DE LOS PATRICIOS;CASEROS AV. Y MONTEAGUDO;CASEROS AV.;;PARQUE PATRICIOS;COMUNA 4;;;-34.63711738161982;-58.40561079435866
540;PLACA;1;BRONCE;NOMENCLATURA OBRA 846;D.O.M. Y M.O.A.;PARQUE LEZAMA;PARQUE LEZAMA;PASEO COLON AV. 1503;PASEO COLON AV.;1503;BOCA;COMUNA 4;1063;C1063ADC;-34.62520921867097;-58.36797836195892
541;PLACA;1;BRONCE;NOMENCLATURA OBRA 847;D.O.M. Y M.O.A.;PARQUE LEZAMA;PARQUE LEZAMA;PASEO COLON AV. 1503;PASEO COLON AV.;1503;BOCA;COMUNA 4;1063;C1063ADC;-34.62520921867097;-58.36797836195892
543;MASTIL;1;GRANITO E HIERRO;HJE. A LA BANDERA;M.O.A.;PLAZA DEL CONGRESO;PLAZA DEL CONGRESO;RIVADAVIA AV. 1702;RIVADAVIA AV.;1702;MONSERRAT;COMUNA 1;1033;C1033AAU;-34.60918989425936;-58.39057130204457
545;PLACA Y MONOLITO;1;BRONCE Y MAMPOSTERIA;NOMENCLATURA OBRA 121;D.O.M. Y M.O.A.;ROSEDAL;ROSEDAL;ISABEL, INFANTA AV. 900;ISABEL, INFANTA AV.;900;PALERMO;COMUNA 14;1425;C1425CHA;-34.57006679763025;-58.42048286500513
548;PLACA Y MONOLITO;1;BRONCE Y MAMPOSTERIA;NOMENCLATURA OBRA 202;D.O.M. Y M.O.A.;JARDIN BOTANICO;JARDIN BOTANICO;SANTA FE AV. 3951;SANTA FE AV.;3951;PALERMO;COMUNA 14;1425;C1425BHB;-34.58373108070923;-58.41788399273957
549;PLACA Y MONOLITO;1;BRONCE Y MAMPOSTERIA;NOMENCLATURA OBRA 207;D.O.M. Y M.O.A.;JARDIN BOTANICO;JARDIN BOTANICO;SANTA FE AV. 3951;SANTA FE AV.;3951;PALERMO;COMUNA 14;1425;C1425BHB;-34.58373108070923;-58.41788399273957
550;PLACA Y MONOLITO;1;BRONCE Y MAMPOSTERIA;NOMENCLATURA OBRA 353;D.O.M. Y M.O.A.;JARDIN BOTANICO;JARDIN BOTANICO;SANTA FE AV. 3951;SANTA FE AV.;3951;PALERMO;COMUNA 14;1425;C1425BHB;-34.58373108070923;-58.41788399273957
551;PLACA Y MONOLITO;1;BRONCE Y MAMPOSTERIA;NOMENCLATURA OBRA 96;D.O.M. Y M.O.A.;JARDIN BOTANICO;JARDIN BOTANICO;SANTA FE AV. 3951;SANTA FE AV.;3951;PALERMO;COMUNA 14;1425;C1425BHB;-34.58373108070923;-58.41788399273957
552;PLACA Y MONOLITO;1;BRONCE Y MAMPOSTERIA;NOMENCLATURA OBRA 201;D.O.M. Y M.O.A.;JARDIN BOTANICO;JARDIN BOTANICO;SANTA FE AV. 3951;SANTA FE AV.;3951;PALERMO;COMUNA 14;1425;C1425BHB;-34.58373108070923;-58.41788399273957
553;PLACA Y MONOLITO;1;BRONCE Y MAMPOSTERIA;NOMENCLATURA OBRA 203;D.O.M. Y M.O.A.;JARDIN BOTANICO;JARDIN BOTANICO;SANTA FE AV. 3951;SANTA FE AV.;3951;PALERMO;COMUNA 14;1425;C1425BHB;-34.58373108070923;-58.41788399273957
554;PLACA Y MONOLITO;1;BRONCE Y MAMPOSTERIA;NOMENCLATURA OBRA 204;D.O.M. Y M.O.A.;JARDIN BOTANICO;JARDIN BOTANICO;SANTA FE AV. 3951;SANTA FE AV.;3951;PALERMO;COMUNA 14;1425;C1425BHB;-34.58373108070923;-58.41788399273957
556;PLACA Y MONOLITO;1;BRONCE Y MAMPOSTERIA;NOMENCLATURA OBRA 1106;D.O.M. Y M.O.A.;JARDIN BOTANICO;JARDIN BOTANICO;SANTA FE AV. 3951;SANTA FE AV.;3951;PALERMO;COMUNA 14;1425;C1425BHB;-34.58373108070923;-58.41788399273957
557;PLACA Y MONOLITO;1;BRONCE Y MAMPOSTERIA;NOMENCLATURA OBRA 1143;D.O.M. Y M.O.A.;JARDIN BOTANICO;JARDIN BOTANICO;SANTA FE AV. 3951;SANTA FE AV.;3951;PALERMO;COMUNA 14;1425;C1425BHB;-34.58373108070923;-58.41788399273957
558;PLACA Y MONOLITO;1;BRONCE Y MAMPOSTERIA;NOMENCLATURA OBRA 125;D.O.M. Y M.O.A.;JARDIN DE LOS POETAS;JARDIN DE LOS POETAS;ISABEL, INFANTA AV. 900;ISABEL, INFANTA AV.;900;;COMUNA 14;1425;C1425CHA;-34.57006679763025;-58.42048286500513
559;PLACA Y MONOLITO;1;BRONCE Y MAMPOSTERIA;HJE. UCRANIANO AL PUEBLO ARGENTINO;;PLAZA DEL CONGRESO;PLAZA DEL CONGRESO;RIVADAVIA AV. 1702;RIVADAVIA AV.;1702;MONSERRAT;COMUNA 1;1033;C1033AAU;-34.60918989425936;-58.39057130204457
560;PLACA Y MONOLITO;1;BRONCE Y MAMPOSTERIA;PIEDRA FUND. MONUMENTO A R. BALBIN;;PLAZA DEL CONGRESO;PLAZA DEL CONGRESO;RIVADAVIA AV. 1702;RIVADAVIA AV.;1702;MONSERRAT;COMUNA 1;1033;C1033AAU;-34.60918989425936;-58.39057130204457
561;PLACA Y MONOLITO;1;ACRILICO Y MAMPOSTERIA;HJE. LUCHA CONTRA EL SIDA;;PLAZA DEL CONGRESO;PLAZA DEL CONGRESO;RIVADAVIA AV. 1702;RIVADAVIA AV.;1702;MONSERRAT;COMUNA 1;1033;C1033AAU;-34.60918989425936;-58.39057130204457
563;TERRAZA Y BALAUSTRA;1;MAMPOSTERIA;MOTIVO DECORATIVO;;PLAZA DEL CONGRESO;PLAZA DEL CONGRESO;RIVADAVIA AV. 1702;RIVADAVIA AV.;1702;MONSERRAT;COMUNA 1;1033;C1033AAU;-34.60918989425936;-58.39057130204457
564;FUENTE (LUMINOSA);1;MAMPOSTERIA;MOTIVO DECORATIVO;D.P. Y M.O.A.;PARQUE CHACABUCO;PARQUE CHACABUCO;PERON, EVA AV. 1410;PERON, EVA AV.;1410;PARQUE CHACABUCO;COMUNA 7;1406;C1406HMP;-34.632902763217736;-58.44476251965362
567;ESCULTURA;1;ACERO INOXIDABLE;BROTES DE UNA NUEVA CONCIENCIA;D.WOLF-R.GASPARIN;PZA CONCEPCION DE ALTOS DE SAN PEÑA;PZA CONCEPCION DE ALTOS DE SAN PEÑA;9 DE JULIO AV. E INDEPENDENCIA AV.;9 DE JULIO AV.;;MONSERRAT;COMUNA 1;;;-34.617640967176094;-58.380690473802865
569;BUSTO Y BASE;1;BRONCE Y MAMPOSTERIA;ALEJANDRO CASONA;DAL PORTO, ORIO;JARDIN DE LOS POETAS;JARDIN DE LOS POETAS;ISABEL, INFANTA AV. 900;ISABEL, INFANTA AV.;900;;COMUNA 14;1425;C1425CHA;-34.57006679763025;-58.42048286500513
570;MONUMENTO;1;MARMOL;BEATO LUIS GUANELLA;DAL PORTO, ORIO;PZTA BEATO LUIS GUANELLA;PZTA BEATO LUIS GUANELLA;SCHMIDL, ULRICO 6301;SCHMIDL, ULRICO;6301;MATADEROS;COMUNA 9;1440;C1440CFY;-34.65027315792668;-58.51121307469085
572;MASTIL;1;MAMPOSTERIA E HIERRO;HJE. A LA BANDERA;CORREOS Y TELECOMUNIC.;PLAZA DEL CORREO;PLAZA DEL CORREO;MADERO, EDUARDO AV. 230;MADERO, EDUARDO AV.;230;SAN NICOLAS;COMUNA 1;1106;C1106ACP;-34.60484196885688;-58.36796597899233
573;ESTATUA;1;CEMENTO;LA BESTIA;DE BUENO, D.;AV BOEDO 878;AV BOEDO 878;BOEDO AV. 878;BOEDO AV.;878;BOEDO;COMUNA 5;1218;C1218AAR;-34.623442927737436;-58.416192494390394
577;MONUMENTO;1;BRONCE;DR.LISANDRO DE LA TORRE;DE LA CARCOVA, CARLOS;AV DIAGONAL NORTE Y ESMERALDA;AV DIAGONAL NORTE Y ESMERALDA;SAENZ PEÑA, ROQUE, PRES. DIAGONAL NORTE AV. Y ESMERALDA;SAENZ PEÑA, ROQUE, PRES. DIAGONAL NORTE AV.;;SAN NICOLAS;COMUNA 1;;;-34.60564952642743;-58.37796429810419
578;ALTO RELIEVE;1;TERRACOTA;MURAL;DE LA CARCOVA, CARLOS;AV CORRIENTES 1530;AV CORRIENTES 1530;CORRIENTES AV. 1530;CORRIENTES AV.;1530;SAN NICOLAS;COMUNA 1;1042;C1042AAO;-34.604238054156944;-58.38864181184383
580;GRUPO ESCULTORICO;1;MARMOL;EL DESPEÑAR DE LA NATURALEZA;DE PARI, JUAN;JARDIN BOTANICO;JARDIN BOTANICO;SANTA FE AV. 3951;SANTA FE AV.;3951;PALERMO;COMUNA 14;1425;C1425BHB;-34.58373108070923;-58.41788399273957
581;BUSTO;1;MARMOL;DR. MANUEL BLANCAS;DE PARI, JUAN;HOSPITAL MUNICIPAL ALVEAR;HOSPITAL MUNICIPAL ALVEAR;WARNES AV. 2630;WARNES AV.;2630;PATERNAL;COMUNA 15;1427;C1427DPS;-34.597121314340825;-58.47588875807253
582;BUSTO;1;CEMENTO PATINADO;DR. IGNACIO PIROVANO;DE PARI, JUAN;HOSPITAL MUNICIPAL PIROVANO;HOSPITAL MUNICIPAL PIROVANO;MONROE AV. 3555;MONROE AV.;3555;COGHLAN;COMUNA 12;1430;C1430BKC;-34.56510577698184;-58.47098644142887
583;BUSTO;1;MARMOL;DR. IGNACIO PIROVANO;DE PARI, JUAN;HOSPITAL MUNICIPAL PIROVANO;HOSPITAL MUNICIPAL PIROVANO;MONROE AV. 3555;MONROE AV.;3555;COGHLAN;COMUNA 12;1430;C1430BKC;-34.56510577698184;-58.47098644142887
587;MASTIL;1;HIERRO;HOMENAJE A LA BANDERA;DEPTO. SERVICIOS GENERALES;AV PRES FIGUEROA ALCORTA 6700;AV PRES FIGUEROA ALCORTA 6700;FIGUEROA ALCORTA, PRES. AV. 6700;FIGUEROA ALCORTA, PRES. AV.;6700;BELGRANO;COMUNA 13;1428;C1428BCP;-34.55076452781657;-58.437555981082845
588;MASTIL;1;HIERRO;HOMENAJE A LA BANDERA;DEPTO. SERVICIOS GENERALES;AV LIBERTADOR 3132;AV LIBERTADOR 3132;DEL LIBERTADOR AV. 3132;DEL LIBERTADOR AV.;3132;PALERMO;COMUNA 14;1425;C1425ABR;-34.57639546866475;-58.4123786006831
589;FUENTE RECTANGULAR;1;MAMPOSTERIA;MOTIVO DECORATIVO;DEPTO.EJECUCION DE OBRAS;QUINTEROS Y HERNANDEZ;QUINTEROS Y HERNANDEZ;QUINTEROS, LIDORO J. AV. Y HERNANDEZ, RAFAEL;QUINTEROS, LIDORO J. AV.;;BELGRANO;COMUNA 13;;;-34.54996645185599;-58.450543618996356
591;PLACA Y MONOLITO;1;BRONCE Y MAMPOSTERIA;NOMENCLATURA DE PLAZA;E.A.I.M.;PLAZA DERECHOS DEL HOMBRE;PLAZA DERECHOS DEL HOMBRE;JUSTO, JUAN B. AV. 8401;JUSTO, JUAN B. AV.;8401;VILLA LURO;COMUNA 10;1407;C1407FBJ;-34.63425153081804;-58.506861516044594
592;FUENTE CIRCULAR;1;MAMPOSTERIA;MOTIVO DECORATIVO;DIRECCION DE EDUCACION FISI;PARQUE RIVADAVIA;PARQUE RIVADAVIA;RIVADAVIA AV. 4800;RIVADAVIA AV.;4800;CABALLITO;COMUNA 6;1424;C1424CEP;-34.61672965517955;-58.432717209488374
593;PLACA;1;BRONCE;HJE. A FEDERICO CHOPIN;DIRECCION DE EDUCACION FISI;PARQUE CHACABUCO;PARQUE CHACABUCO;PERON, EVA AV. 1410;PERON, EVA AV.;1410;PARQUE CHACABUCO;COMUNA 7;1406;C1406HMP;-34.632902763217736;-58.44476251965362
594;PILETA;1;MAMPOSTERIA;MOTIVO DECORATIVO;;PLAZA DERECHOS DEL HOMBRE;PLAZA DERECHOS DEL HOMBRE;JUSTO, JUAN B. AV. 8401;JUSTO, JUAN B. AV.;8401;VILLA LURO;COMUNA 10;1407;C1407FBJ;-34.63425153081804;-58.506861516044594
597;COPA Y PILAR;1;MAMPOSTERIA;MOTIVO DECORATIVO;DIRECCION DE PASEOS;AV CRUZ Y CENTENERA;AV CRUZ Y CENTENERA;FERNANDEZ DE LA CRUZ, F., GRAL. AV. Y BARCO CENTENERA DEL;FERNANDEZ DE LA CRUZ, F., GRAL. AV.;;NUEVA POMPEYA;COMUNA 4;;;-34.647949356477284;-58.428254140492
598;PLACA Y MONOLITO;1;BRONCE Y MAMPOSTERIA;HJE.DECLARACION UNIV.DERECHOS HUM.;;PLAZA DERECHOS DEL HOMBRE;PLAZA DERECHOS DEL HOMBRE;JUSTO, JUAN B. AV. 8401;JUSTO, JUAN B. AV.;8401;VILLA LURO;COMUNA 10;1407;C1407FBJ;-34.63425153081804;-58.506861516044594
599;MASTIL;1;HIERRO Y MAMPOSTERIA;HOMENAJE A LA BANDERA;DIRECCION DE PASEOS;AVDA CNEL CARDENAS Y CARHUE;AVDA CNEL CARDENAS Y CARHUE;CARDENAS, CNEL. AV. Y CARHUE;CARDENAS, CNEL. AV.;;MATADEROS;COMUNA 9;;;-34.66819919668151;-58.50129876498829
601;MASTIL;1;MAMPOSTERIA E HIERRO;HJE. A LA BANDERA;U.G.R.O.M. / U.G.R.P.P;PLAZA DIAZ VELEZ;PLAZA DIAZ VELEZ;CRUZ, OSVALDO AV. 2250;CRUZ, OSVALDO AV.;2250;BARRACAS;COMUNA 4;1293;C1293ADN;-34.65285509517653;-58.37754021060206
603;MONUMENTO;1;GRANITO Y BRONCE;DOMINGO MATHEU;ALONSO, MATEO;PLAZA DOMINGO MATHEU;PLAZA DOMINGO MATHEU;ARAOZ DE LAMADRID, GREGORIO, GRAL. Y HERNANDARIAS;ARAOZ DE LAMADRID, GREGORIO, GRAL.;;BOCA;COMUNA 4;;;-34.63988845722923;-58.367628426785785
607;PLACA;1;MARMOL;HJE.A CARLOS LINNEO;DIRECCION DE PASEOS Y M.O.A;JARDIN BOTANICO;JARDIN BOTANICO;SANTA FE AV. 3951;SANTA FE AV.;3951;PALERMO;COMUNA 14;1425;C1425BHB;-34.58373108070923;-58.41788399273957
608;VEREDA;1;MAMPOSTERIA;MOTIVO DECORATIVO;DIRECCION DE PASEOS Y M.O.A;ROSEDAL;ROSEDAL;ISABEL, INFANTA AV. 900;ISABEL, INFANTA AV.;900;PALERMO;COMUNA 14;1425;C1425CHA;-34.57006679763025;-58.42048286500513
611;MASTIL;1;HIERRO Y MAMPOSTERIA;HOMENAJE A LA BANDERA;D.A.O.M.;PLAZA DOMINGO OLIVERA;PLAZA DOMINGO OLIVERA;ESCALADA DE SAN MARTINN, R. 4364;ESCALADA DE SAN MARTINN, R.;4364;VELEZ SARSFIELD;COMUNA 10;1407;C1407EVV;-34.62639323390849;-58.49338130854369
613;PLACA Y MONOLITO;1;BRONCE Y MAMPOSTERIA;NOMINA ACOMPA?ANTES DE COLON;DRESCO, ARTURO;PARQUE COLON SUR;PARQUE COLON SUR;PASEO COLON AV. Y YRIGOYEN, HIPOLITO AV.;PASEO COLON AV.;;;COMUNA 1;;;-34.60883150097415;-58.369657797110726
616;JARRON;1;CEMENTO PATINADO;MOTIVO DECORATIVO;M.O.A.;PLAZA DOMINGO OLIVERA;PLAZA DOMINGO OLIVERA;REMEDIOS 4364;REMEDIOS;4364;PARQUE AVELLANEDA;COMUNA 9;1407;C1407HJV;-34.64790510322636;-58.48370241401392
618;BUSTO Y BASE;1;BRONCE;SAN JUAN BOSCO;ARSENAL E.DE LUCA;PLAZA DON BOSCO;PLAZA DON BOSCO;LOPE DE VEGA AV. 1485;LOPE DE VEGA AV.;1485;VILLA LURO;COMUNA 10;1407;C1407BOA;-34.62616345910216;-58.509201415445474
620;BUSTO;1;MARMOL;MIGUEL CANE;DRIVIER, LEON ERNESTO;PALACIO MUNICIPAL;PALACIO MUNICIPAL;BOLIVAR 1;BOLIVAR;1;MONSERRAT;COMUNA 1;1066;C1066AAA;-34.60820167772438;-58.373573345960764
621;BUSTO;1;MARMOL;FRANCISCO ALCOBENDAS;DRIVIER, LEON ERNESTO;PALACIO MUNICIPAL;PALACIO MUNICIPAL;BOLIVAR 1;BOLIVAR;1;MONSERRAT;COMUNA 1;1066;C1066AAA;-34.60820167772438;-58.373573345960764
624;PLACA Y MONOLITO;1;BRONCE Y MAMPOSTERIA;HJE. A EX- ALUMNOS DE DON BOSCO;;PLAZA DON BOSCO;PLAZA DON BOSCO;LOPE DE VEGA AV. 1485;LOPE DE VEGA AV.;1485;VILLA LURO;COMUNA 10;1407;C1407BOA;-34.62616345910216;-58.509201415445474
626;TEMPLETE;1;GRANITO Y CERAMICA;VIRGEN DEL ROSARIO DE SAN NICOLAS;;PLAZA DON BOSCO;PLAZA DON BOSCO;LOPE DE VEGA AV. 1485;LOPE DE VEGA AV.;1485;VILLA LURO;COMUNA 10;1407;C1407BOA;-34.62616345910216;-58.509201415445474
628;PLACA;1;MARMOL;HJE. A EVITA;;PLAZA DORREGO;PLAZA DORREGO;DEFENSA Y HUMBERTO 1°;DEFENSA;;SAN TELMO;COMUNA 1;;;-34.620667541322746;-58.37142525448924
629;FUENTE;1;MAMPOSTERIA;MOTIVO DECORATIVO;E.A.I.M.;ROSEDAL;ROSEDAL;ISABEL, INFANTA AV. 900;ISABEL, INFANTA AV.;900;PALERMO;COMUNA 14;1425;C1425CHA;-34.57006679763025;-58.42048286500513
630;PLACA;1;MARMOL;HJE. AL TTE.GRAL.JUAN DOMINGO PERON;;PLAZA DORREGO;PLAZA DORREGO;DEFENSA Y HUMBERTO 1°;DEFENSA;;SAN TELMO;COMUNA 1;;;-34.620667541322746;-58.37142525448924
631;JARRON;1;MARMOL;MOTIVO DECORATIVO;E.A.I.M.;PLAZA DR JOSE C PAZ;PLAZA DR JOSE C PAZ;TABORDA, DIOGENES Y CORTEJARENA, JOSE A.;TABORDA, DIOGENES;;PARQUE PATRICIOS;COMUNA 4;;;-34.64381431320936;-58.4114661954461
632;LAGO ARTIFICIAL;1;;MOTIVO DECORATIVO;E.A.I.M.;PARQUE GENERAL PAZ;PARQUE GENERAL PAZ;LARRALDE, CRISOLOGO AV. Y PAZ, GRAL. AV.;LARRALDE, CRISOLOGO AV.;;SAAVEDRA;COMUNA 12;;;-34.56926478979384;-58.50834609259787
633;PLACA Y MONOLITO;1;BRONCE Y MAMPOSTERIA;HJE. AL DR. JOSE C. PAZ;E.A.I.M.;PLAZA DR JOSE C PAZ;PLAZA DR JOSE C PAZ;TABORDA, DIOGENES Y CORTEJARENA, JOSE A.;TABORDA, DIOGENES;;PARQUE PATRICIOS;COMUNA 4;;;-34.64381431320936;-58.4114661954461
634;GRUPO ESCULTORICO;1;MARMOL;LA MADRE;PERLOTI, LUIS;PLAZA DR JOSE C PAZ;PLAZA DR JOSE C PAZ;TABORDA, DIOGENES Y CORTEJARENA, JOSE A.;TABORDA, DIOGENES;;PARQUE PATRICIOS;COMUNA 4;;;-34.64381431320936;-58.4114661954461
636;MASTIL;1;MAMPOSTERIA E HIERRO;HJE. A LA BANDERA;E.A.I.M.;PARQUE LOS ANDES;PARQUE LOS ANDES;NEWBERY, JORGE AV. 4100;NEWBERY, JORGE AV.;4100;CHACARITA;COMUNA 15;1427;C1427EGT;-34.58861484431831;-58.45066409316981
637;BASE ARTISTICA;1;MAMPOSTERIA;MOTIVO DECORATIVO;;PLAZA DR JOSE C PAZ;PLAZA DR JOSE C PAZ;TABORDA, DIOGENES Y CORTEJARENA, JOSE A.;TABORDA, DIOGENES;;PARQUE PATRICIOS;COMUNA 4;;;-34.64381431320936;-58.4114661954461
638;BASE ARTISTICA;1;MAMPOSTERIA;MOTIVO DECORATIVO;;PLAZA DR JOSE C PAZ;PLAZA DR JOSE C PAZ;TABORDA, DIOGENES Y CORTEJARENA, JOSE A.;TABORDA, DIOGENES;;PARQUE PATRICIOS;COMUNA 4;;;-34.64381431320936;-58.4114661954461
640;MASTIL;1;MAMPOSTERIA E HIERRO;HJE. A LA BANDERA;;PLAZA DR JOSE C PAZ;PLAZA DR JOSE C PAZ;TABORDA, DIOGENES Y CORTEJARENA, JOSE A.;TABORDA, DIOGENES;;PARQUE PATRICIOS;COMUNA 4;;;-34.64381431320936;-58.4114661954461
641;PLACA Y MONOLITO;1;BRONCE Y MAMPOSTERIA;HJE. AL DR. GUTIERREZ;D.A.O.M.;PLAZA DR AVELINO GUTIERREZ;PLAZA DR AVELINO GUTIERREZ;MITRE, EMILIO 793;MITRE, EMILIO;793;PARQUE CHACABUCO;COMUNA 7;1424;C1424AYO;-34.63093429652618;-58.442290810147185
642;PLACA;1;MARMOL ONIX;HJE. AL DR. MARIANO BOEDO;;PLAZA DR MARIANO BOEDO;PLAZA DR MARIANO BOEDO;ESTADOS UNIDOS 3000;ESTADOS UNIDOS;3000;SAN CRISTOBAL;COMUNA 3;1227;C1227ABX;-34.620885533932906;-58.407433984051295
643;PLACA;1;MARMOL ONIX;HJE. AL DR. MARIANO BOEDO;;PLAZA DR MARIANO BOEDO;PLAZA DR MARIANO BOEDO;ESTADOS UNIDOS 3000;ESTADOS UNIDOS;3000;SAN CRISTOBAL;COMUNA 3;1227;C1227ABX;-34.620885533932906;-58.407433984051295
644;PLACA Y MONOLITO;1;BRONCE Y MAMPOSTERIA;HJE. AL DR. ONESIMO LEGUIZAMON;D.A.O.M.;PLAZA DR ONESIMO LEGUIZAMON;PLAZA DR ONESIMO LEGUIZAMON;FRAGATA LA ARGENTINA 1502;FRAGATA LA ARGENTINA;1502;MATADEROS;COMUNA 9;1440;C1440EXD;-34.65601689485686;-58.51863280501584
645;MASTIL;1;HIERRO Y MAMPOSTERIA;HOMENAJE A LA BANDERA;M.O.A.;PLAZA DR ONESIMO LEGUIZAMON;PLAZA DR ONESIMO LEGUIZAMON;FRAGATA LA ARGENTINA 1502;FRAGATA LA ARGENTINA;1502;MATADEROS;COMUNA 9;1440;C1440EXD;-34.65601689485686;-58.51863280501584
646;GRUPO ESCULTORICO;1;CEMENTO PATINADO;HOMENAJE A LA MADRE;PERLOTI, LUIS;PLAZA DR ONESIMO LEGUIZAMON;PLAZA DR ONESIMO LEGUIZAMON;FRAGATA LA ARGENTINA 1502;FRAGATA LA ARGENTINA;1502;MATADEROS;COMUNA 9;1440;C1440EXD;-34.65601689485686;-58.51863280501584
647;PLACA Y MONOLITO;1;BRONCE Y MAMPOSTERIA;HJE.A CARLOS THAYS;E.A.I.M.;JARDIN BOTANICO;JARDIN BOTANICO;SANTA FE AV. 3951;SANTA FE AV.;3951;PALERMO;COMUNA 14;1425;C1425BHB;-34.58373108070923;-58.41788399273957
650;MASTIL;1;MAMPOSTERIA;HJE. A LA BANDERA;D.G.O.M.;PLAZA DR ROQUE SAENZ PEÑA;PLAZA DR ROQUE SAENZ PE?A;JUSTO, JUAN B. AV. 4817;JUSTO, JUAN B. AV.;4817;VILLA GRAL. MITRE;COMUNA 11;1416;C1416DKC;-34.610915439026584;-58.46735822344192
651;PLACA Y MONOLITO;1;BRONCE Y MAMPOSTERIA;HJE.A ALEJANDRO PETION;E.A.I.M.;PZTA ALEJANDRO PETION;PZTA ALEJANDRO PETION;AGUADO, ALEJANDRO M. DE 2892;AGUADO, ALEJANDRO M. DE;2892;PALERMO;COMUNA 14;1425;C1425CEB;-34.57900485612525;-58.40240617061152
652;PERGOLA ARTISTICA;8;MAMPOSTERIA;MOTIVO DECORATIVO;E.A.I.M.;PARQUE CHACABUCO;PARQUE CHACABUCO;PERON, EVA AV. 1410;PERON, EVA AV.;1410;PARQUE CHACABUCO;COMUNA 7;1406;C1406HMP;-34.632902763217736;-58.44476251965362
653;MASTIL;1;HIERRO Y MAMPOSTERIA;HOMENAJE A LA BANDERA;E.S.M.A.;PZTA ROMULO ZABALA;PZTA ROMULO ZABALA;ERCILLA 7515;ERCILLA;7515;MATADEROS;COMUNA 9;1440;C1440CIM;-34.65671259483705;-58.52073012133433
654;MONUMENTO;1;GRANITO Y BRONCE;BERNARDO DE MONTEAGUDO;EBERLEIN, GUSTAVO;PZTA CORONEL PRINGLES;PZTA CORONEL PRINGLES;CASEROS AV. 2999;CASEROS AV.;2999;PARQUE PATRICIOS;COMUNA 4;1264;C1264AAJ;-34.6370159307149;-58.405514008551776
655;FUENTE;1;MAMPOSTERIA;MOTIVO DECORATIVO;DIRECCION DE PASEOS Y M.O.A;PLAZA DR ROQUE SAENZ PEÑA;PLAZA DR ROQUE SAENZ PE?A;JUSTO, JUAN B. AV. 4817;JUSTO, JUAN B. AV.;4817;VILLA GRAL. MITRE;COMUNA 11;1416;C1416DKC;-34.610915439026584;-58.46735822344192
656;PLACA Y MONOLITO;1;BRONCE Y MAMPOSTERIA;NOMENCLATURA DE PLAZA;E.A.I.M.;PLAZA DR ROQUE SAENZ PEÑA;PLAZA DR ROQUE SAENZ PE?A;JUSTO, JUAN B. AV. 4817;JUSTO, JUAN B. AV.;4817;VILLA GRAL. MITRE;COMUNA 11;1416;C1416DKC;-34.610915439026584;-58.46735822344192
657;PLACA Y MONOLITO;1;BRONCE Y MAMPOSTERIA;HJE.AL DR.BERNARDO HOUSSAY;D.G.O.M. Y M.O.A.;PLAZA DR BERNARDO HOUSSAY;PLAZA DR BERNARDO HOUSSAY;CORDOBA AV. 2100;CORDOBA AV.;2100;BALVANERA;COMUNA 3;1120;C1120AAP;-34.5998044138089;-58.39704741976874
660;BUSTO;1;BRONCE;ALEJANDRO PETION;ESCUDERO, MIGUEL;PZTA ALEJANDRO PETION;PZTA ALEJANDRO PETION;AGUADO, ALEJANDRO M. DE 2892;AGUADO, ALEJANDRO M. DE;2892;PALERMO;COMUNA 14;1425;C1425CEB;-34.57900485612525;-58.40240617061152
661;BUSTO;1;MARMOL;HORACIO CASCO;ESCUELAS RAGGIO;PALACIO MUNICIPAL;PALACIO MUNICIPAL;BOLIVAR 1;BOLIVAR;1;MONSERRAT;COMUNA 1;1066;C1066AAA;-34.60820167772438;-58.373573345960764
666;BUSTO;1;BRONCE;JORGE LUIS BORGES;ESTEVEZ, CARLOS;JARDIN DE LOS POETAS;JARDIN DE LOS POETAS;ISABEL, INFANTA AV. 900;ISABEL, INFANTA AV.;900;;COMUNA 14;1425;C1425CHA;-34.57006679763025;-58.42048286500513
667;MURAL;1;CEMENTO;IMAGEN DEL LITORAL;FALCINI, LUIS V;CEMENTERIO DE LA CHACARITA;CEMENTERIO DE LA CHACARITA;GUZMAN AV. 680;GUZMAN AV.;680;CHACARITA;COMUNA 15;1427;C1427BOT;-34.58733567782963;-58.45531011804598
668;FIGURA;1;BRONCE;FLAGMA EXTINTA;FALCINI, LUIS V;CEMENTERIO DE LA CHACARITA;CEMENTERIO DE LA CHACARITA;GUZMAN AV. 680;GUZMAN AV.;680;CHACARITA;COMUNA 15;1427;C1427BOT;-34.58733567782963;-58.45531011804598
670;BUSTO;1;BRONCE;FEDERICO CHOPIN;FERRARI, JUAN;PARQUE CHACABUCO;PARQUE CHACABUCO;PERON, EVA AV. 1410;PERON, EVA AV.;1410;PARQUE CHACABUCO;COMUNA 7;1406;C1406HMP;-34.632902763217736;-58.44476251965362
671;PLACA;1;MARMOL;HJE. DR.ENRIQUE PICHON RIVIERE;;PLAZA DR ENRIQUE PICHON RIVIERE;PLAZA DR ENRIQUE PICHON RIVIERE;AZCUENAGA 1145;AZCUENAGA;1145;RECOLETA;COMUNA 2;1115;C1115AAG;-34.59467655832807;-58.39972450409807
677;PLACA Y MONOLITO;1;BRONCE;HJE.A PEDRO QUARTUCCI;D.G.O.M.;PLAZA DR ROQUE SAENZ PEÑA;PLAZA DR ROQUE SAENZ PE?A;JUSTO, JUAN B. AV. 4817;JUSTO, JUAN B. AV.;4817;VILLA GRAL. MITRE;COMUNA 11;1416;C1416DKC;-34.610915439026584;-58.46735822344192
678;PLACA Y MONOLITO;1;MARMOL Y MAMPOSTERIA;HJE.CENTENARIO VILLA DEL PARQUE;;PLAZA DR ROQUE SAENZ PEÑA;PLAZA DR ROQUE SAENZ PE?A;JUSTO, JUAN B. AV. 4817;JUSTO, JUAN B. AV.;4817;VILLA GRAL. MITRE;COMUNA 11;1416;C1416DKC;-34.610915439026584;-58.46735822344192
680;PLACA Y MONOLITO;1;BRONCE Y MAMPOSTERIA;HJE.CENTENARIO DE VILLA URQUIZA;D.G.O.M.;PLAZA ECHEVERRIA;PLAZA ECHEVERRIA;BAUNESS 1258;BAUNESS;1258;PARQUE CHAS;COMUNA 15;1427;C1427BCR;-34.58645098807002;-58.47741222963711
681;PLACA Y MONOLITO;1;BRONCE Y MAMPOSTERIA;HJE.CENTENARIO DE VILLA URQUIZA;D.G.O.M.;PLAZA ECHEVERRIA;PLAZA ECHEVERRIA;BAUNESS 1258;BAUNESS;1258;PARQUE CHAS;COMUNA 15;1427;C1427BCR;-34.58645098807002;-58.47741222963711
683;MASTIL;1;HIERRO Y MAMPOSTERIA;HOMENAJE A LA BANDERA;D.G.P. Y M.O.A.;PLAZA ECHEVERRIA;PLAZA ECHEVERRIA;BAUNESS 1258;BAUNESS;1258;PARQUE CHAS;COMUNA 15;1427;C1427BCR;-34.58645098807002;-58.47741222963711
684;BUSTO;1;BRONCE;ROSALIA DE CASTRO;FERRARO, JUAN CARLOS;JARDIN DE LOS POETAS;JARDIN DE LOS POETAS;ISABEL, INFANTA AV. 900;ISABEL, INFANTA AV.;900;;COMUNA 14;1425;C1425CHA;-34.57006679763025;-58.42048286500513
685;PLACA Y MONOLITO;1;BRONCE Y MAMPOSTERIA;HJE.A ESTEBAN ECHEVERRIA;MASSA, S.;PLAZA ECHEVERRIA;PLAZA ECHEVERRIA;BAUNESS 1258;BAUNESS;1258;PARQUE CHAS;COMUNA 15;1427;C1427BCR;-34.58645098807002;-58.47741222963711
686;BUSTO;1;BRONCE;OSVALDO PUGLIESE;FERRARO, JUAN CARLOS;AV CORRIENTES Y L M DRAGO;AV CORRIENTES Y L M DRAGO;CORRIENTES AV. Y DRAGO, LUIS MARIA;CORRIENTES AV.;;VILLA CRESPO;COMUNA 15;;;-34.59987061586227;-58.43876747310645
687;MONUMENTO (RELIEVE);1;GRANITO;GENERAL JUSTO JOSE DE URQUIZA;TOSTO, PABLO;PLAZA ECHEVERRIA;PLAZA ECHEVERRIA;BAUNESS 1258;BAUNESS;1258;PARQUE CHAS;COMUNA 15;1427;C1427BCR;-34.58645098807002;-58.47741222963711
688;JARRON;1;HIERRO FUNDIDO;MOTIVO DECORATIVO;;PLAZA ECHEVERRIA;PLAZA ECHEVERRIA;BAUNESS 1258;BAUNESS;1258;PARQUE CHAS;COMUNA 15;1427;C1427BCR;-34.58645098807002;-58.47741222963711
691;ALTO RELIEVE;1;CEMENTO;MOTIVO DECORATIVO;FIORAVANTI, JOSE;TEATRO SAN MARTINN;TEATRO SAN MARTINN;CORRIENTES AV. 1530;CORRIENTES AV.;1530;SAN NICOLAS;COMUNA 1;1042;C1042AAO;-34.604238054156944;-58.38864181184383
693;BUSTO;1;MARMOL;CARLOS NOEL;FIORAVANTI, JOSE;PALACIO MUNICIPAL;PALACIO MUNICIPAL;BOLIVAR 1;BOLIVAR;1;MONSERRAT;COMUNA 1;1066;C1066AAA;-34.60820167772438;-58.373573345960764
695;BUSTO Y BASE;1;BRONCE Y GRANITO;DR. ALFONSO R. CASTELAO;FIORAVANTI, JOSE;HALL TEATRO CASTELAO;HALL TEATRO CASTELAO;MORENO 2166;MORENO;2166;BALVANERA;COMUNA 3;1094;C1094ABH;-34.61306555723372;-58.397122824979
696;BUSTO;1;BRONCE;DR. MARCOS AVELLANEDA;FIORAVANTI, JOSE;ROSEDAL;ROSEDAL;ISABEL, INFANTA AV. 900;ISABEL, INFANTA AV.;900;PALERMO;COMUNA 14;1425;C1425CHA;-34.57006679763025;-58.42048286500513
697;BUSTO;1;BRONCE;WALTER OWENS;FIORAVANTI, JOSE;AV DEL LIBERTADOR N 2372;AV DEL LIBERTADOR N 2372;DEL LIBERTADOR AV. 2372;DEL LIBERTADOR AV.;2372;PALERMO;COMUNA 14;1425;C1425AAW;-34.58019285355433;-58.40535993235186
698;BUSTO Y BASE;1;BRONCE Y MARMOL;WILLIAM SHAKESPEARE;FIORAVANTI, JOSE;JARDIN DE LOS POETAS;JARDIN DE LOS POETAS;ISABEL, INFANTA AV. 900;ISABEL, INFANTA AV.;900;;COMUNA 14;1425;C1425CHA;-34.57006679763025;-58.42048286500513
699;MONUMENTO;1;MARMOL Y BRONCE;GRL. SIMON BOLIVAR;FIORAVANTI, JOSE;PARQUE RIVADAVIA;PARQUE RIVADAVIA;RIVADAVIA AV. 4800;RIVADAVIA AV.;4800;CABALLITO;COMUNA 6;1424;C1424CEP;-34.61672965517955;-58.432717209488374
700;MONUMENTO;1;PIEDRA PARIS;DR. ROQUE SAENZ PE?A;FIORAVANTI, JOSE;AV ROQUE SAENZ PEÑA Y FLORIDA;AV ROQUE SAENZ PE?A Y FLORIDA;SAENZ PEÑA, ROQUE, PRES. DIAGONAL NORTE AV. Y FLORIDA;SAENZ PEÑA, ROQUE, PRES. DIAGONAL NORTE AV.;;SAN NICOLAS;COMUNA 1;;;-34.60719829510626;-58.375008949422586
701;PLACA Y MONOLITO;1;BRONCE Y MAMPOSTERIA;HJE.ENTRE RIOS A VILLA URQUIZA;;PLAZA ECHEVERRIA;PLAZA ECHEVERRIA;BAUNESS 1258;BAUNESS;1258;PARQUE CHAS;COMUNA 15;1427;C1427BCR;-34.58645098807002;-58.47741222963711
702;PLACA Y MONOLITO;1;BRONCE Y MAMPOSTERIA;HJE. A VILLA URQUIZA;;PLAZA ECHEVERRIA;PLAZA ECHEVERRIA;BAUNESS 1258;BAUNESS;1258;PARQUE CHAS;COMUNA 15;1427;C1427BCR;-34.58645098807002;-58.47741222963711
703;TEMPLETE;1;MAMPOSTERIA Y MAYOLICA;HJE.A LA VIRGEN DE LUJAN;;PLAZA ECHEVERRIA;PLAZA ECHEVERRIA;BAUNESS 1258;BAUNESS;1258;PARQUE CHAS;COMUNA 15;1427;C1427BCR;-34.58645098807002;-58.47741222963711
706;MASTIL;1;MAMPOSTERIA E HIERRO;HOMENAJE A LA BANDERA;D.A.O.M.;PLAZA EJERCITO DE LOS ANDES;PLAZA EJERCITO DE LOS ANDES;RIVADAVIA AV. 10300;RIVADAVIA AV.;10300;VILLA LURO;COMUNA 10;1408;C1408AAP;-34.63896265126069;-58.508560435434454
710;ESTATUA;1;HIERRO FUNDIDO;JOVEN NEPTUNO;FUNDACION DU VAL D OSNE;MUSEO DE TELECOMUNICACIONES;MUSEO DE TELECOMUNICACIONES;ZAVALETA 150;ZAVALETA;150;PARQUE PATRICIOS;COMUNA 4;1437;C1437EYD;-34.638542567961004;-58.403343615755
712;GRUPO ESCULTORICO;1;MARMOL;EL PROGRESO;NOEL, PABLO TONI;PLAZA EJERCITO DE LOS ANDES;PLAZA EJERCITO DE LOS ANDES;RIVADAVIA AV. 10300;RIVADAVIA AV.;10300;VILLA LURO;COMUNA 10;1408;C1408AAP;-34.63896265126069;-58.508560435434454
713;ESTATUAS;2;HIERRO FUNDIDO;NAYADES;FUNDACION DU VAL D OSNE;MUSEO DE TELECOMUNICACIONES;MUSEO DE TELECOMUNICACIONES;ZAVALETA 150;ZAVALETA;150;PARQUE PATRICIOS;COMUNA 4;1437;C1437EYD;-34.638542567961004;-58.403343615755
716;SURTIDOR (SIRENA);1;HIERRO FUNDIDO;MOTIVO DECORATIVO;FUNDACION DU VAL D OSNE;LA RIOJA 1243;LA RIOJA 1243;LA RIOJA 1243;LA RIOJA;1243;SAN CRISTOBAL;COMUNA 3;1244;C1244ABA;-34.625025920471366;-58.40705543467509
718;FUENTE;1;HIERRO FUNDIDO;MOTIVO DECORATIVO;FUNDACION DU VAL D OSNE;ARROYO Y JUNCAL;ARROYO Y JUNCAL;ARROYO Y JUNCAL;ARROYO;;RETIRO;COMUNA 1;;;-34.592883149193234;-58.37858808931435
722;BUSTO;1;BRONCE;GRL. SAN MARTINN;FUNDICION ARTMETA;HOSPITAL SANTOJANNI;HOSPITAL SANTOJANNI;PILAR 950;PILAR;950;LINIERS;COMUNA 9;1408;C1408INH;-34.64935338226299;-58.51580056467818
723;MASTIL;1;HIERRO Y MAMPOSTERIA;HOMENAJE A LA BANDERA;FUNDICION ARTMETA;PARQUE AVELLANEDA;PARQUE AVELLANEDA;DIRECTORIO AV. Y LACARRA;DIRECTORIO AV.;;PARQUE AVELLANEDA;COMUNA 9;;;-34.6412975520066;-58.47992772490574
725;PLACA Y MONOLITO;1;BRONCE Y MAMPOSTERIA;HJE.AL PRESBITERO CA?AS Y DELGADO;D.G.O.M.;PLAZA EL SALVADOR;PLAZA EL SALVADOR;MONROE 1001;MONROE;1001;BELGRANO;COMUNA 13;1428;C1428BKG;-34.54966664454939;-58.44550741709504
726;MASTIL;1;HIERRO Y MAMPOSTERIA;HOMENAJE A LA BANDERA;D.A.O.M.;PLAZA EMILIO MITRE;PLAZA EMILIO MITRE;LAS HERAS GENERAL AV. 2300;LAS HERAS GENERAL AV.;2300;RECOLETA;COMUNA 2;1127;C1127AAR;-34.58747065181685;-58.39720581482482
728;MONUMENTO;1;BRONCE Y HORMIGON;HJE. A HEROES CAIDOS EN MALVINAS;GAIMARI, SANTIAGO;AV PASEO COLON Y ALSINA;AV PASEO COLON Y ALSINA;PASEO COLON AV. Y ALSINA, ADOLFO;PASEO COLON AV.;;MONSERRAT;COMUNA 1;;;-34.609905446758006;-58.369467756000645
731;BUSTO Y BASE;1;MARMOL Y MAMPOSTERIA;DR. JOSE M. BOSCH;GARDEY, HENRY;HOSPITAL MUNICIPAL DEL QUEMADO;HOSPITAL MUNICIPAL DEL QUEMADO;GOYENA, PEDRO AV. 369;GOYENA, PEDRO AV.;369;CABALLITO;COMUNA 6;1424;C1424BSD;-34.62557323938732;-58.43222637129292
733;BUSTO;1;BRONCE;DR. JUAN B. EMINA;GARINO, JUAN;HOSPITAL MUNICIPAL PIROVANO;HOSPITAL MUNICIPAL PIROVANO;MONROE AV. 3555;MONROE AV.;3555;COGHLAN;COMUNA 12;1430;C1430BKC;-34.56510577698184;-58.47098644142887
734;GRUPO ESCULTORICO;1;BRONCE;CANTO AL TRABAJO;YRURTIA, ROGELIO;PLAZA EVA PERON;PLAZA EVA PERON;LANTERI JULIETA 1775;LANTERI JULIETA;1775;PUERTO MADERO;COMUNA 1;1107;C1107CRK;-34.6192501607796;-58.359513494088574
735;ESTATUA;1;BRONCE;L'ACQUAIOLO;GEMITO, VICENTE;JARDIN BOTANICO;JARDIN BOTANICO;SANTA FE AV. 3951;SANTA FE AV.;3951;PALERMO;COMUNA 14;1425;C1425BHB;-34.58373108070923;-58.41788399273957
737;PIEDRA FUNDAMENTAL;1;GRANITO;PRO MONUMENTO A BALCARCE;;PLAZA EVA PERON;PLAZA EVA PERON;LANTERI JULIETA 1775;LANTERI JULIETA;1775;PUERTO MADERO;COMUNA 1;1107;C1107CRK;-34.6192501607796;-58.359513494088574
738;MASTIL;1;MAMPOSTERIA;HJE. A LA BANDERA;;PLAZA EXODO JUJEÑO;PLAZA EXODO JUJE?O;BAUNESS 1601;BAUNESS;1601;PARQUE CHAS;COMUNA 15;1431;C1431DNE;-34.58343034106617;-58.48123235756114
739;ESCULTURA MODERNA;1;HIERRO;GRULLA;GOYA, JULIO EDUARDO;PZTA PROV DE SANTIAGO DEL ESTERO;PZTA PROV DE SANTIAGO DEL ESTERO;PELLEGRINI, CARLOS Y PARAGUAY;PELLEGRINI, CARLOS;;;COMUNA 1;;;-34.59783982128505;-58.38134738931953
740;PLACA Y MONOLITO;1;BRONCE Y MAMPOSTERIA;HJE. AL PARQUE CHAS;;PLAZA EXODO JUJEÑO;PLAZA EXODO JUJE?O;BAUNESS 1601;BAUNESS;1601;PARQUE CHAS;COMUNA 15;1431;C1431DNE;-34.58343034106617;-58.48123235756114
741;PLACA Y MONOLITO;1;BRONCE Y MAMPOSTERIA;NOMENCLATURA DE PLAZA;D.G.O.M.;PLAZA FELIX AGUILAR;PLAZA FELIX AGUILAR;FIGUEROA ALCORTA, PRES. AV. 6464;FIGUEROA ALCORTA, PRES. AV.;6464;BELGRANO;COMUNA 13;1428;C1428BCN;-34.552978757079394;-58.435608756006516
743;PLACA Y MONOLITO;1;BRONCE Y MAMPOSTERIA;NOMENCLATURA OBRA 44;D.A.O.M.;PLAZA FRANCIA;PLAZA FRANCIA;DEL LIBERTADOR AV. 1400;DEL LIBERTADOR AV.;1400;RECOLETA;COMUNA 2;1112;C1112ABQ;-34.58475990642078;-58.391704533378004
744;PLACA Y MONOLITO;1;BRONCE Y MAMPOSTERIA;HJE.ARMISTICIO 1RA.GUERRA MUNDIAL;D.A.O.M.;PLAZA FRANCIA;PLAZA FRANCIA;DEL LIBERTADOR AV. 1400;DEL LIBERTADOR AV.;1400;RECOLETA;COMUNA 2;1112;C1112ABQ;-34.58475990642078;-58.391704533378004
745;BUSTO;1;BRONCE;ALFONSINA STORNI;GUMA, NILDA TOLEDO;JARDIN DE LOS POETAS;JARDIN DE LOS POETAS;ISABEL, INFANTA AV. 900;ISABEL, INFANTA AV.;900;;COMUNA 14;1425;C1425CHA;-34.57006679763025;-58.42048286500513
747;PLACA Y MONOLITO;1;BRONCE Y MAMPOSTERIA;HJE.FRANCIA A LA ARGENTINA;D.G.O.M.;PLAZA FRANCIA;PLAZA FRANCIA;DEL LIBERTADOR AV. 1400;DEL LIBERTADOR AV.;1400;RECOLETA;COMUNA 2;1112;C1112ABQ;-34.58475990642078;-58.391704533378004
751;PLACA Y MONOLITO;1;BRONCE Y MAMPOSTERIA;HJE.DECLARACION DERECHOS HUMANOS;D.G.O.M.;PLAZA FRANCIA;PLAZA FRANCIA;DEL LIBERTADOR AV. 1400;DEL LIBERTADOR AV.;1400;RECOLETA;COMUNA 2;1112;C1112ABQ;-34.58475990642078;-58.391704533378004
757;BUSTO;1;CEMENTO PATINADO;GRL. JOSE DE SAN MARTINN;GURRIERI, BLAS SALVADOR;AV RIVADAVIA 10300;AV RIVADAVIA 10300;RIVADAVIA AV. 10300;RIVADAVIA AV.;10300;VILLA LURO;COMUNA 10;1408;C1408AAP;-34.63896265126069;-58.508560435434454
765;MONUMENTO;1;BRONCE Y GRANITO;EL ABUELO INMORTAL;IBARRA GARCIA, ANGEL;MCAL RAMON CASTILLA Y AGUADO;MCAL RAMON CASTILLA Y AGUADO;CASTILLA, RAMON, MARISCAL Y AGUADO, ALEJANDRO M. DE;CASTILLA, RAMON, MARISCAL;;PALERMO;COMUNA 14;;;-34.58038552208196;-58.40081871225598
767;ESTATUA;1;MAMPOSTERIA;PEÑADOR FRIGIO;ISELLA DE MOTTEAU;JARDIN ZOOLOGICO;JARDIN ZOOLOGICO;SARMIENTO 2601;SARMIENTO;2601;BALVANERA;COMUNA 3;1045;C1045ABC;-34.60634336537214;-58.40364250639897
770;PLACA Y MONOLITO;1;BRONCE Y MAMPOSTERIA;HJE.A SIXTO ALVAREZ (FRAY MOCHO);D.G.O.M.;PLAZA FRAY MOCHO;PLAZA FRAY MOCHO;FIGUEROA ALCORTA, PRES. AV. Y BUNGE, INT.;FIGUEROA ALCORTA, PRES. AV.;;PALERMO;COMUNA 14;;;-34.557206623928224;-58.42997916871111
771;ESCULTURA;1;CHAPA ANTICORADAL;FORMA CONTINUA;JOURMI, ELEO;TEATRO SAN MARTINN;TEATRO SAN MARTINN;CORRIENTES AV. 1530;CORRIENTES AV.;1530;SAN NICOLAS;COMUNA 1;1042;C1042AAO;-34.604238054156944;-58.38864181184383
773;BUSTO;1;MARMOL;ALBERTO PREBISH;JUAREZ, HORACIO;PALACIO MUNICIPAL;PALACIO MUNICIPAL;BOLIVAR 1;BOLIVAR;1;MONSERRAT;COMUNA 1;1066;C1066AAA;-34.60820167772438;-58.373573345960764
776;PLACA Y MONOLITO;1;BRONCE Y MAMPOSTERIA;HJE. A TATO BORES;;PLAZA FRAY MOCHO;PLAZA FRAY MOCHO;FIGUEROA ALCORTA, PRES. AV. Y BUNGE, INT.;FIGUEROA ALCORTA, PRES. AV.;;PALERMO;COMUNA 14;;;-34.557206623928224;-58.42997916871111
777;BUSTO;1;BRONCE;JULIO DORMAL;LAGAE, JULIO;HALL TEATRO COLON;HALL TEATRO COLON;CERRITO 628;CERRITO;628;SAN NICOLAS;COMUNA 1;1010;C1010AAN;-34.60105148488146;-58.382441400272654
778;MONUMENTO;1;GRANITO Y BRONCE;CORNELIO SAAVEDRA;LAGAE, JULIO;PZTA REGIMIENTO 1 DE PATRICIOS;PZTA REGIMIENTO 1 DE PATRICIOS;SANTA FE AV. 4815;SANTA FE AV.;4815;PALERMO;COMUNA 14;1425;C1425BHK;-34.57722853104102;-58.42860423783285
780;PLACA Y MONOLITO;1;BRONCE Y MAMPOSTERIA;HJE.A CAIDOS EN GUERRA DEL ATLANTICO SU;D.G.O.M. Y M.O.A.;PLAZA FUERZA AEREA ARGENTINA;PLAZA FUERZA AEREA ARGENTINA;SAN MARTINN 1212;SAN MARTINN;1212;RETIRO;COMUNA 1;1104;C1104AKD;-34.59296256486265;-58.373191711568516
781;BUSTO;1;BRONCE;DR. PASCUAL PALMA;LAGOS, ALBERTO;HOSPITAL MUNICIPAL DURAND;HOSPITAL MUNICIPAL DURAND;DIAZ VELEZ AV. 5044;DIAZ VELEZ AV.;5044;CABALLITO;COMUNA 6;1405;C1405DCS;-34.608871538034805;-58.437888375930584
782;BUSTO;1;BRONCE;DR. PEDRO CHUTRO;LAGOS, ALBERTO;HOSPITAL MUNICIPAL RAMOS MEJIA;HOSPITAL MUNICIPAL RAMOS MEJIA;URQUIZA, GRAL. 609;URQUIZA, GRAL.;609;BALVANERA;COMUNA 3;1221;C1221ADC;-34.617620510654355;-58.409400324618595
783;BUSTO;1;BRONCE;DR. G. A. NOLTING;LAGOS, ALBERTO;HOSPITAL MUNICIPAL RAMOS MEJIA;HOSPITAL MUNICIPAL RAMOS MEJIA;URQUIZA, GRAL. 609;URQUIZA, GRAL.;609;BALVANERA;COMUNA 3;1221;C1221ADC;-34.617620510654355;-58.409400324618595
786;BUSTO;1;MARMOL;AMADO NERVO;LAGOS, ALBERTO;JARDIN DE LOS POETAS;JARDIN DE LOS POETAS;ISABEL, INFANTA AV. 900;ISABEL, INFANTA AV.;900;;COMUNA 14;1425;C1425CHA;-34.57006679763025;-58.42048286500513
787;BUSTO Y BASE;1;BRONCE Y GRANITO;ALBERTO LAGOS;LAGOS, ALBERTO;GUIDO Y JUNIN;GUIDO Y JUNIN;GUIDO Y JUNIN;GUIDO;;RECOLETA;COMUNA 2;;;-34.58816959473701;-58.392330718489156
788;PLACA Y MONOLITO;1;BRONCE Y MAMPOSTERIA;HJE.A CARLOS PELLEGRINI;LAGOS, ALBERTO;PZTA CARLOS PELLEGRINI;PZTA CARLOS PELLEGRINI;ALVEAR AV. 1350;ALVEAR AV.;1350;RETIRO;COMUNA 1;1014;C1014AAN;-34.59167891664071;-58.383109364623046
789;MONUMENTO;1;BRONCE Y MARMOL;JEAN MERMOZ;LAGOS, ALBERTO;AV RAFAEL OBLIGADO (AEROPARQUE);AV RAFAEL OBLIGADO (AEROPARQUE);OBLIGADO RAFAEL, AV.COSTANERA Y SARMIENTO AV.;OBLIGADO RAFAEL, AV.COSTANERA;;;COMUNA 14;;;-34.567916364970955;-58.40194257146334
790;MONUMENTO;1;BRONCE Y GRANITO;LUIS MARIA DRAGO;LAGOS, ALBERTO;PZTA GRAL JOSE ANTONIO PAEZ;PZTA GRAL JOSE ANTONIO PAEZ;ISABEL, INFANTA AV. 410;ISABEL, INFANTA AV.;410;;COMUNA 14;1425;C1425CHA;-34.570992070336025;-58.421387664761454
791;PLACA;1;CEMENTO PATINADO;HJE. AL CADETE M. M. DE GUEMES Y A H;M.O.A.;PLAZA FUERZA AEREA ARGENTINA;PLAZA FUERZA AEREA ARGENTINA;SAN MARTINN 1212;SAN MARTINN;1212;RETIRO;COMUNA 1;1104;C1104AKD;-34.59296256486265;-58.373191711568516
792;MONUMENTO;1;BRONCE Y PIEDRA;DR.ANTONIO PI?ERO;LAGOS, ALBERTO;GUIDO Y AGUERO;GUIDO Y AGUERO;GUIDO Y AGUERO;GUIDO;;RECOLETA;COMUNA 2;;;-34.58477158946821;-58.39777005453263
793;RELIEVE;1;CEMENTO PATINADO;HJE. AL GRAL. MARTIN MIGUEL DE GÌEME;M.O.A.;PLAZA FUERZA AEREA ARGENTINA;PLAZA FUERZA AEREA ARGENTINA;SAN MARTINN 1212;SAN MARTINN;1212;RETIRO;COMUNA 1;1104;C1104AKD;-34.59296256486265;-58.373191711568516
794;MONUMENTO;1;BRONCE Y MAMPOSTERIA;TORRE MONUMENTAL;POYNTER, AMBROSIO;PLAZA FUERZA AEREA ARGENTINA;PLAZA FUERZA AEREA ARGENTINA;SAN MARTINN 1212;SAN MARTINN;1212;RETIRO;COMUNA 1;1104;C1104AKD;-34.59296256486265;-58.373191711568516
795;MONUMENTO;1;BRONCE;EL INMIGRANTE;LAGOS, ALBERTO;AV ANTARTIDA ARGENTINA Y MAIPU;AV ANTARTIDA ARGENTINA Y MAIPU;ANTARTIDA ARGENTINA AV. Y SAN MARTINN;ANTARTIDA ARGENTINA AV.;;;COMUNA 1;;;-34.59000018031124;-58.37070837781312
801;MASTIL;1;HIERRO Y MAMPOSTERIA;HOMENAJE A LA BANDERA;GIULIANI, NICOLAS;PLAZA GENERAL BELGRANO;PLAZA GENERAL BELGRANO;VUELTA DE OBLIGADO 2000;VUELTA DE OBLIGADO;2000;BELGRANO;COMUNA 13;1428;C1428ADD;-34.562488436456256;-58.45483961383647
802;GRUPO ESCULTORICO;1;MARMOL;LAS TRES GRACIAS;REPRODUCCION;PLAZA GENERAL BELGRANO;PLAZA GENERAL BELGRANO;VUELTA DE OBLIGADO 2000;VUELTA DE OBLIGADO;2000;BELGRANO;COMUNA 13;1428;C1428ADD;-34.562488436456256;-58.45483961383647
803;ESTATUA;1;PIEDRA;FLOR INDIGENA;LEGUIZAMON PONDAL;JARDIN BOTANICO;JARDIN BOTANICO;SANTA FE AV. 3951;SANTA FE AV.;3951;PALERMO;COMUNA 14;1425;C1425BHB;-34.58373108070923;-58.41788399273957
804;GRUPO ESCULTORICO;1;BRONCE Y PIEDRA;LOBA ROMANA;LEGUIZAMON PONDAL;PARQUE LEZAMA;PARQUE LEZAMA;PASEO COLON AV. 1503;PASEO COLON AV.;1503;BOCA;COMUNA 4;1063;C1063ADC;-34.62520921867097;-58.36797836195892
806;ESTATUA;1;BRONCE;EN EL UMBRAL DEL MUNDO ESPIRIRUAL;LEONE, JUAN BAUTISTA;PZTA ENRIQUE UDAONDO;PZTA ENRIQUE UDAONDO;JUNCAL Y MONTEVIDEO;JUNCAL;;RECOLETA;COMUNA 2;;;-34.592819634981346;-58.38946358008685
810;BUSTO;1;BRONCE;JOSE MARTI;LESCAY MERENCIO, A.;JARDIN DE LOS POETAS;JARDIN DE LOS POETAS;ISABEL, INFANTA AV. 900;ISABEL, INFANTA AV.;900;;COMUNA 14;1425;C1425CHA;-34.57006679763025;-58.42048286500513
811;ESTATUA;1;BRONCE;DR. JOSE MARIA PEÑA;LETTORIA, J.;HOSPITAL MUNICIPAL MUÑIZ;HOSPITAL MUNICIPAL MUÑIZ;USPALLATA 2272;USPALLATA;2272;PARQUE PATRICIOS;COMUNA 4;1282;C1282AEN;-34.63721751149928;-58.39299956938621
812;BUSTO;1;COBRE;JOSE HERNANDEZ;LIMA QUINTANA, NESTOR;AV DEL LIBERTADOR N 2372;AV DEL LIBERTADOR N 2372;DEL LIBERTADOR AV. 2372;DEL LIBERTADOR AV.;2372;PALERMO;COMUNA 14;1425;C1425AAW;-34.58019285355433;-58.40535993235186
813;MONUMENTO;1;GRANITO Y BRONCE;HIPOLITO VIEYTES;LLANECES, JOSE;VIEYTES Y OLAVARRIA;VIEYTES Y OLAVARRIA;VIEYTES Y OLAVARRIA;VIEYTES;;BARRACAS;COMUNA 4;;;-34.642949523327644;-58.37941618898959
814;ESTATUA;1;MARMOL;HOMENAJE CENTENARIO;LLIMONA BURGHERA;PARQUE RIVADAVIA;PARQUE RIVADAVIA;RIVADAVIA AV. 4800;RIVADAVIA AV.;4800;CABALLITO;COMUNA 6;1424;C1424CEP;-34.61672965517955;-58.432717209488374
815;MONUMENTO;1;BRONCE Y GRANITO;HOMENAJE A LA HAZA?A DEL PLUS ULTRA;LORDA, JOSE;PARQUE BALNEARIO SUR;PARQUE BALNEARIO SUR;PAZ, GRAL. AV. 16802;PAZ, GRAL. AV.;16802;;COMUNA 8;1439;C1439HNO;-34.69801445074425;-58.46981073107586
816;PLACA Y MONOLITO;1;BRONCE Y GRANITO;PIEDRA FUNDAMENTAL MTO.BELGRANO;;PLAZA GENERAL BELGRANO;PLAZA GENERAL BELGRANO;VUELTA DE OBLIGADO 2000;VUELTA DE OBLIGADO;2000;BELGRANO;COMUNA 13;1428;C1428ADD;-34.562488436456256;-58.45483961383647
817;PLACA Y MONOLITO;1;BRONCE Y MAMPOSTERIA;HJE.12*ANIV.BARRIO DE BELGRANO;;PLAZA GENERAL BELGRANO;PLAZA GENERAL BELGRANO;VUELTA DE OBLIGADO 2000;VUELTA DE OBLIGADO;2000;BELGRANO;COMUNA 13;1428;C1428ADD;-34.562488436456256;-58.45483961383647
819;PLACA Y MONOLITO;1;BRONCE Y MAMPOSTERIA;HJE. AL CEIBO;CAMPOLONGHI, CARLOS;PLAZA GRAL JUAN M DE PUEYRREDON;PLAZA GRAL JUAN M DE PUEYRREDON;YERBAL 2450;YERBAL;2450;;COMUNA 7;1406;C1406GKD;-34.62795954529241;-58.4641949856872
821;PLACAS;4;BRONCE;HJE. A LA BANDERA;DIRECCION DE EDUCACION FISI;PLAZA GRAL JUAN M DE PUEYRREDON;PLAZA GRAL JUAN M DE PUEYRREDON;YERBAL 2450;YERBAL;2450;;COMUNA 7;1406;C1406GKD;-34.62795954529241;-58.4641949856872
822;JARRON;2;CEMENTO PATINADO;MOTIVO DECORATIVO;M.O.A.;PARQUE BALNEARIO SUR;PARQUE BALNEARIO SUR;PAZ, GRAL. AV. 16802;PAZ, GRAL. AV.;16802;;COMUNA 8;1439;C1439HNO;-34.69801445074425;-58.46981073107586
823;JARRON;2;CEMENTO PATINADO;MOTIVO DECORATIVO;M.O.A.;CEMENTERIO DE LA CHACARITA;CEMENTERIO DE LA CHACARITA;GUZMAN AV. 680;GUZMAN AV.;680;CHACARITA;COMUNA 15;1427;C1427BOT;-34.58733567782963;-58.45531011804598
824;JARRON;3;CEMENTO PATINADO;MOTIVO DECORATIVO;M.O.A.;HOSPITAL MUNICIPAL RAWSON;HOSPITAL MUNICIPAL RAWSON;ALCORTA, AMANCIO AV. 1502;ALCORTA, AMANCIO AV.;1502;BARRACAS;COMUNA 4;1283;C1283AAO;-34.63464908546135;-58.38466646227171
826;JARRON;4;FIBROCEMENTO;MOTIVO DECORARIVO;M.O.A.;PALACIO MUNICIPAL;PALACIO MUNICIPAL;BOLIVAR 1;BOLIVAR;1;MONSERRAT;COMUNA 1;1066;C1066AAA;-34.60820167772438;-58.373573345960764
827;JARRON;4;CEMENTO PATINADO;MOTIVOS DECORATIVOS;M.O.A.;JARDIN BOTANICO;JARDIN BOTANICO;SANTA FE AV. 3951;SANTA FE AV.;3951;PALERMO;COMUNA 14;1425;C1425BHB;-34.58373108070923;-58.41788399273957
828;MONUMENTO;1;GRANITO Y BRONCE;GRL. JUAN MARTIN DE PUEYRREDON;HERNANDEZ, RAFAEL;PLAZA GRAL JUAN M DE PUEYRREDON;PLAZA GRAL JUAN M DE PUEYRREDON;YERBAL 2450;YERBAL;2450;;COMUNA 7;1406;C1406GKD;-34.62795954529241;-58.4641949856872
830;MONOLITO MONUMENTAL;1;CEMENTO;HJE. A VITO DUMAS;M.O.A.;PARQUE BALNEARIO SUR;PARQUE BALNEARIO SUR;PAZ, GRAL. AV. 16802;PAZ, GRAL. AV.;16802;;COMUNA 8;1439;C1439HNO;-34.69801445074425;-58.46981073107586
834;BUSTO;1;CEMENTO PATINADO;GRL. JOSE DE SAN MARTINN;M.O.A.;PARQUE AVELLANEDA;PARQUE AVELLANEDA;DIRECTORIO AV. Y LACARRA;DIRECTORIO AV.;;PARQUE AVELLANEDA;COMUNA 9;;;-34.6412975520066;-58.47992772490574
841;PLACA Y MONOLITO;1;BRONCE Y MAMPOSTERIA;HJE. A LA BANDERA;;PLAZA GRAL JUAN M DE PUEYRREDON;PLAZA GRAL JUAN M DE PUEYRREDON;YERBAL 2450;YERBAL;2450;;COMUNA 7;1406;C1406GKD;-34.62795954529241;-58.4641949856872
842;MONOLITO;1;MAMPOSTERIA;SUSTENTACION DE PLACA 734;M.O.A.;PARQUE AVELLANEDA;PARQUE AVELLANEDA;DIRECTORIO AV. Y LACARRA;DIRECTORIO AV.;;PARQUE AVELLANEDA;COMUNA 9;;;-34.6412975520066;-58.47992772490574
844;ESTATUA Y BASE;1;CEMENTO PATINADO;MONJE BAJO LA LLUVIA;ANTONUCCIO, PEDRO;PLAZA GRAL JUAN M DE PUEYRREDON;PLAZA GRAL JUAN M DE PUEYRREDON;YERBAL 2450;YERBAL;2450;;COMUNA 7;1406;C1406GKD;-34.62795954529241;-58.4641949856872
850;BUSTO;1;CEMENTO;GRL. SAN MARTINN;M.O.A.;INSPECCION GENERAL;INSPECCION GENERAL;PASEO COLON AV. 275;PASEO COLON AV.;275;MONSERRAT;COMUNA 1;1063;C1063ACC;-34.61089617255762;-58.36983041025274
852;PLACA;1;BRONCE;HJE. AL CAP.(R.E.)J.L. D'ANDREA MOHR;D.G.O.P.;PLAZA GRAL JUAN M DE PUEYRREDON;PLAZA GRAL JUAN M DE PUEYRREDON;YERBAL 2450;YERBAL;2450;;COMUNA 7;1406;C1406GKD;-34.62795954529241;-58.4641949856872
858;PLACA;1;BRONCE;HJE. AL CORONEL MARTIN RICO;D.G.O.P.;PLAZA GRAL JUAN M DE PUEYRREDON;PLAZA GRAL JUAN M DE PUEYRREDON;YERBAL 2450;YERBAL;2450;;COMUNA 7;1406;C1406GKD;-34.62795954529241;-58.4641949856872
859;PLACA Y MONOLITO;1;BRONCE Y MAMPOSTERIA;HJE. A ENVAR EL KADRI;D.G.O.P.;PLAZA GRAL JUAN M DE PUEYRREDON;PLAZA GRAL JUAN M DE PUEYRREDON;YERBAL 2450;YERBAL;2450;;COMUNA 7;1406;C1406GKD;-34.62795954529241;-58.4641949856872
860;JARRON;1;CEMENTO PATINADO;MOTIVO DECORATIVO;M.O.A.;PARQUE CHACABUCO;PARQUE CHACABUCO;PERON, EVA AV. 1410;PERON, EVA AV.;1410;PARQUE CHACABUCO;COMUNA 7;1406;C1406HMP;-34.632902763217736;-58.44476251965362
863;JARRON;1;CEMENTO PATINADO;MOTIVO DECORATIVO;M.O.A.;PARQUE BALNEARIO SUR;PARQUE BALNEARIO SUR;PAZ, GRAL. AV. 16802;PAZ, GRAL. AV.;16802;;COMUNA 8;1439;C1439HNO;-34.69801445074425;-58.46981073107586
